[
  {
    "codigo_ibge": 5200050,
    "nome": "Abadia de Goiás",
    "uf": "GO",
    "estado": "Goiás",
    "latitude": -16.7573,
    "longitude": -49.4412
  },
  {
    "codigo_ibge": 3100104,
    "nome": "Abadia dos Dourados",
    "uf": "MG",
    "estado": "Minas Gerais",
    "latitude": -18.4831,
    "longitude": -47.3916
  },
  {
    "codigo_ibge": 5200100,
    "nome": "Abadiânia",
    "uf": "GO",
    "estado": "Goiás",
    "latitude": -16.197,
    "longitude": -48.7057
  },
  {
    "codigo_ibge": 3100203,
    "nome": "Abaeté",
    "uf": "MG",
    "estado": "Minas Gerais",
    "latitude": -19.1551,
    "longitude": -45.4444
  },
  {
    "codigo_ibge": 1500107,
    "nome": "Abaetetuba",
    "uf": "PA",
    "estado": "Pará",
    "latitude": -1.72183,
    "longitude": -48.8788
  },
  {
    "codigo_ibge": 2300101,
    "nome": "Abaiara",
    "uf": "CE",
    "estado": "Ceará",
    "latitude": -7.34588,
    "longitude": -39.0416
  },
  {
    "codigo_ibge": 2900108,
    "nome": "Abaíra",
    "uf": "BA",
    "estado": "Bahia",
    "latitude": -13.2488,
    "longitude": -41.6619
  },
  {
    "codigo_ibge": 2900207,
    "nome": "Abaré",
    "uf": "BA",
    "estado": "Bahia",
    "latitude": -8.72073,
    "longitude": -39.1162
  },
  {
    "codigo_ibge": 4100103,
    "nome": "Abatiá",
    "uf": "PR",
    "estado": "Paraná",
    "latitude": -23.3049,
    "longitude": -50.3133
  },
  {
    "codigo_ibge": 4200051,
    "nome": "Abdon Batista",
    "uf": "SC",
    "estado": "Santa Catarina",
    "latitude": -27.6126,
    "longitude": -51.0233
  },
  {
    "codigo_ibge": 1500131,
    "nome": "Abel Figueiredo",
    "uf": "PA",
    "estado": "Pará",
    "latitude": -4.95333,
    "longitude": -48.3933
  },
  {
    "codigo_ibge": 4200101,
    "nome": "Abelardo Luz",
    "uf": "SC",
    "estado": "Santa Catarina",
    "latitude": -26.5716,
    "longitude": -52.3229
  },
  {
    "codigo_ibge": 3100302,
    "nome": "Abre Campo",
    "uf": "MG",
    "estado": "Minas Gerais",
    "latitude": -20.2996,
    "longitude": -42.4743
  },
  {
    "codigo_ibge": 2600054,
    "nome": "Abreu e Lima",
    "uf": "PE",
    "estado": "Pernambuco",
    "latitude": -7.90072,
    "longitude": -34.8984
  },
  {
    "codigo_ibge": 1700251,
    "nome": "Abreulândia",
    "uf": "TO",
    "estado": "Tocantins",
    "latitude": -9.62101,
    "longitude": -49.1518
  },
  {
    "codigo_ibge": 3100401,
    "nome": "Acaiaca",
    "uf": "MG",
    "estado": "Minas Gerais",
    "latitude": -20.359,
    "longitude": -43.1439
  },
  {
    "codigo_ibge": 2100055,
    "nome": "Açailândia",
    "uf": "MA",
    "estado": "Maranhão",
    "latitude": -4.94714,
    "longitude": -47.5004
  },
  {
    "codigo_ibge": 2900306,
    "nome": "Acajutiba",
    "uf": "BA",
    "estado": "Bahia",
    "latitude": -11.6575,
    "longitude": -38.0197
  },
  {
    "codigo_ibge": 1500206,
    "nome": "Acará",
    "uf": "PA",
    "estado": "Pará",
    "latitude": -1.95383,
    "longitude": -48.1985
  },
  {
    "codigo_ibge": 2300150,
    "nome": "Acarape",
    "uf": "CE",
    "estado": "Ceará",
    "latitude": -4.22083,
    "longitude": -38.7055
  },
  {
    "codigo_ibge": 2300200,
    "nome": "Acaraú",
    "uf": "CE",
    "estado": "Ceará",
    "latitude": -2.88769,
    "longitude": -40.1183
  },
  {
    "codigo_ibge": 2400109,
    "nome": "Acari",
    "uf": "RN",
    "estado": "Rio Grande do Norte",
    "latitude": -6.4282,
    "longitude": -36.6347
  },
  {
    "codigo_ibge": 2200053,
    "nome": "Acauã",
    "uf": "PI",
    "estado": "Piauí",
    "latitude": -8.21954,
    "longitude": -41.0831
  },
  {
    "codigo_ibge": 4300034,
    "nome": "Aceguá",
    "uf": "RS",
    "estado": "Rio Grande do Sul",
    "latitude": -31.8665,
    "longitude": -54.1615
  },
  {
    "codigo_ibge": 2300309,
    "nome": "Acopiara",
    "uf": "CE",
    "estado": "Ceará",
    "latitude": -6.08911,
    "longitude": -39.448
  },
  {
    "codigo_ibge": 5100102,
    "nome": "Acorizal",
    "uf": "MT",
    "estado": "Mato Grosso",
    "latitude": -15.194,
    "longitude": -56.3632
  },
  {
    "codigo_ibge": 1200013,
    "nome": "Acrelândia",
    "uf": "AC",
    "estado": "Acre",
    "latitude": -9.82581,
    "longitude": -66.8972
  },
  {
    "codigo_ibge": 5200134,
    "nome": "Acreúna",
    "uf": "GO",
    "estado": "Goiás",
    "latitude": -17.396,
    "longitude": -50.3749
  },
  {
    "codigo_ibge": 2400208,
    "nome": "Açu",
    "uf": "RN",
    "estado": "Rio Grande do Norte",
    "latitude": -5.58362,
    "longitude": -36.914
  },
  {
    "codigo_ibge": 3100500,
    "nome": "Açucena",
    "uf": "MG",
    "estado": "Minas Gerais",
    "latitude": -19.0671,
    "longitude": -42.5419
  },
  {
    "codigo_ibge": 3500105,
    "nome": "Adamantina",
    "uf": "SP",
    "estado": "São Paulo",
    "latitude": -21.682,
    "longitude": -51.0737
  },
  {
    "codigo_ibge": 5200159,
    "nome": "Adelândia",
    "uf": "GO",
    "estado": "Goiás",
    "latitude": -16.4127,
    "longitude": -50.1657
  },
  {
    "codigo_ibge": 3500204,
    "nome": "Adolfo",
    "uf": "SP",
    "estado": "São Paulo",
    "latitude": -21.2325,
    "longitude": -49.6451
  },
  {
    "codigo_ibge": 4100202,
    "nome": "Adrianópolis",
    "uf": "PR",
    "estado": "Paraná",
    "latitude": -24.6606,
    "longitude": -48.9922
  },
  {
    "codigo_ibge": 2900355,
    "nome": "Adustina",
    "uf": "BA",
    "estado": "Bahia",
    "latitude": -10.5437,
    "longitude": -38.1113
  },
  {
    "codigo_ibge": 2600104,
    "nome": "Afogados da Ingazeira",
    "uf": "PE",
    "estado": "Pernambuco",
    "latitude": -7.74312,
    "longitude": -37.631
  },
  {
    "codigo_ibge": 2400307,
    "nome": "Afonso Bezerra",
    "uf": "RN",
    "estado": "Rio Grande do Norte",
    "latitude": -5.49229,
    "longitude": -36.5075
  },
  {
    "codigo_ibge": 3200102,
    "nome": "Afonso Cláudio",
    "uf": "ES",
    "estado": "Espírito Santo",
    "latitude": -20.0778,
    "longitude": -41.1261
  },
  {
    "codigo_ibge": 2100105,
    "nome": "Afonso Cunha",
    "uf": "MA",
    "estado": "Maranhão",
    "latitude": -4.13631,
    "longitude": -43.3275
  },
  {
    "codigo_ibge": 2600203,
    "nome": "Afrânio",
    "uf": "PE",
    "estado": "Pernambuco",
    "latitude": -8.51136,
    "longitude": -41.0095
  },
  {
    "codigo_ibge": 1500305,
    "nome": "Afuá",
    "uf": "PA",
    "estado": "Pará",
    "latitude": -0.154874,
    "longitude": -50.3861
  },
  {
    "codigo_ibge": 2600302,
    "nome": "Agrestina",
    "uf": "PE",
    "estado": "Pernambuco",
    "latitude": -8.45966,
    "longitude": -35.9447
  },
  {
    "codigo_ibge": 2200103,
    "nome": "Agricolândia",
    "uf": "PI",
    "estado": "Piauí",
    "latitude": -5.79676,
    "longitude": -42.6664
  },
  {
    "codigo_ibge": 4200200,
    "nome": "Agrolândia",
    "uf": "SC",
    "estado": "Santa Catarina",
    "latitude": -27.4087,
    "longitude": -49.822
  },
  {
    "codigo_ibge": 4200309,
    "nome": "Agronômica",
    "uf": "SC",
    "estado": "Santa Catarina",
    "latitude": -27.2662,
    "longitude": -49.708
  },
  {
    "codigo_ibge": 1500347,
    "nome": "Água Azul do Norte",
    "uf": "PA",
    "estado": "Pará",
    "latitude": -6.79053,
    "longitude": -50.4791
  },
  {
    "codigo_ibge": 3100609,
    "nome": "Água Boa",
    "uf": "MG",
    "estado": "Minas Gerais",
    "latitude": -17.9914,
    "longitude": -42.3806
  },
  {
    "codigo_ibge": 5100201,
    "nome": "Água Boa",
    "uf": "MT",
    "estado": "Mato Grosso",
    "latitude": -14.051,
    "longitude": -52.1601
  },
  {
    "codigo_ibge": 2200202,
    "nome": "Água Branca",
    "uf": "PI",
    "estado": "Piauí",
    "latitude": -5.88856,
    "longitude": -42.637
  },
  {
    "codigo_ibge": 2500106,
    "nome": "Água Branca",
    "uf": "PB",
    "estado": "Paraíba",
    "latitude": -7.51144,
    "longitude": -37.6357
  },
  {
    "codigo_ibge": 2700102,
    "nome": "Água Branca",
    "uf": "AL",
    "estado": "Alagoas",
    "latitude": -9.262,
    "longitude": -37.938
  },
  {
    "codigo_ibge": 5000203,
    "nome": "Água Clara",
    "uf": "MS",
    "estado": "Mato Grosso do Sul",
    "latitude": -20.4452,
    "longitude": -52.879
  },
  {
    "codigo_ibge": 3100708,
    "nome": "Água Comprida",
    "uf": "MG",
    "estado": "Minas Gerais",
    "latitude": -20.0576,
    "longitude": -48.1069
  },
  {
    "codigo_ibge": 4200408,
    "nome": "Água Doce",
    "uf": "SC",
    "estado": "Santa Catarina",
    "latitude": -26.9985,
    "longitude": -51.5528
  },
  {
    "codigo_ibge": 2100154,
    "nome": "Água Doce do Maranhão",
    "uf": "MA",
    "estado": "Maranhão",
    "latitude": -2.84048,
    "longitude": -42.1189
  },
  {
    "codigo_ibge": 3200169,
    "nome": "Água Doce do Norte",
    "uf": "ES",
    "estado": "Espírito Santo",
    "latitude": -18.5482,
    "longitude": -40.9854
  },
  {
    "codigo_ibge": 2900405,
    "nome": "Água Fria",
    "uf": "BA",
    "estado": "Bahia",
    "latitude": -11.8618,
    "longitude": -38.7639
  },
  {
    "codigo_ibge": 5200175,
    "nome": "Água Fria de Goiás",
    "uf": "GO",
    "estado": "Goiás",
    "latitude": -14.9778,
    "longitude": -47.7823
  },
  {
    "codigo_ibge": 5200209,
    "nome": "Água Limpa",
    "uf": "GO",
    "estado": "Goiás",
    "latitude": -18.0771,
    "longitude": -48.7603
  },
  {
    "codigo_ibge": 2400406,
    "nome": "Água Nova",
    "uf": "RN",
    "estado": "Rio Grande do Norte",
    "latitude": -6.20351,
    "longitude": -38.2941
  },
  {
    "codigo_ibge": 2600401,
    "nome": "Água Preta",
    "uf": "PE",
    "estado": "Pernambuco",
    "latitude": -8.70609,
    "longitude": -35.5263
  },
  {
    "codigo_ibge": 4300059,
    "nome": "Água Santa",
    "uf": "RS",
    "estado": "Rio Grande do Sul",
    "latitude": -28.1672,
    "longitude": -52.031
  },
  {
    "codigo_ibge": 3500303,
    "nome": "Aguaí",
    "uf": "SP",
    "estado": "São Paulo",
    "latitude": -22.0572,
    "longitude": -46.9735
  },
  {
    "codigo_ibge": 3100807,
    "nome": "Aguanil",
    "uf": "MG",
    "estado": "Minas Gerais",
    "latitude": -20.9439,
    "longitude": -45.3915
  },
  {
    "codigo_ibge": 2600500,
    "nome": "Águas Belas",
    "uf": "PE",
    "estado": "Pernambuco",
    "latitude": -9.11125,
    "longitude": -37.1226
  },
  {
    "codigo_ibge": 3500402,
    "nome": "Águas da Prata",
    "uf": "SP",
    "estado": "São Paulo",
    "latitude": -21.9319,
    "longitude": -46.7176
  },
  {
    "codigo_ibge": 4200507,
    "nome": "Águas de Chapecó",
    "uf": "SC",
    "estado": "Santa Catarina",
    "latitude": -27.0754,
    "longitude": -52.9808
  },
  {
    "codigo_ibge": 3500501,
    "nome": "Águas de Lindóia",
    "uf": "SP",
    "estado": "São Paulo",
    "latitude": -22.4733,
    "longitude": -46.6314
  },
  {
    "codigo_ibge": 3500550,
    "nome": "Águas de Santa Bárbara",
    "uf": "SP",
    "estado": "São Paulo",
    "latitude": -22.8812,
    "longitude": -49.2421
  },
  {
    "codigo_ibge": 3500600,
    "nome": "Águas de São Pedro",
    "uf": "SP",
    "estado": "São Paulo",
    "latitude": -22.5977,
    "longitude": -47.8734
  },
  {
    "codigo_ibge": 3100906,
    "nome": "Águas Formosas",
    "uf": "MG",
    "estado": "Minas Gerais",
    "latitude": -17.0802,
    "longitude": -40.9384
  },
  {
    "codigo_ibge": 4200556,
    "nome": "Águas Frias",
    "uf": "SC",
    "estado": "Santa Catarina",
    "latitude": -26.8794,
    "longitude": -52.8568
  },
  {
    "codigo_ibge": 5200258,
    "nome": "Águas Lindas de Goiás",
    "uf": "GO",
    "estado": "Goiás",
    "latitude": -15.7617,
    "longitude": -48.2816
  },
  {
    "codigo_ibge": 4200606,
    "nome": "Águas Mornas",
    "uf": "SC",
    "estado": "Santa Catarina",
    "latitude": -27.6963,
    "longitude": -48.8243
  },
  {
    "codigo_ibge": 3101003,
    "nome": "Águas Vermelhas",
    "uf": "MG",
    "estado": "Minas Gerais",
    "latitude": -15.7431,
    "longitude": -41.4571
  },
  {
    "codigo_ibge": 4300109,
    "nome": "Agudo",
    "uf": "RS",
    "estado": "Rio Grande do Sul",
    "latitude": -29.6447,
    "longitude": -53.2515
  },
  {
    "codigo_ibge": 3500709,
    "nome": "Agudos",
    "uf": "SP",
    "estado": "São Paulo",
    "latitude": -22.4694,
    "longitude": -48.9863
  },
  {
    "codigo_ibge": 4100301,
    "nome": "Agudos do Sul",
    "uf": "PR",
    "estado": "Paraná",
    "latitude": -25.9899,
    "longitude": -49.3343
  },
  {
    "codigo_ibge": 3200136,
    "nome": "Águia Branca",
    "uf": "ES",
    "estado": "Espírito Santo",
    "latitude": -18.9846,
    "longitude": -40.7437
  },
  {
    "codigo_ibge": 2500205,
    "nome": "Aguiar",
    "uf": "PB",
    "estado": "Paraíba",
    "latitude": -7.0918,
    "longitude": -38.1681
  },
  {
    "codigo_ibge": 1700301,
    "nome": "Aguiarnópolis",
    "uf": "TO",
    "estado": "Tocantins",
    "latitude": -6.55409,
    "longitude": -47.4702
  },
  {
    "codigo_ibge": 3101102,
    "nome": "Aimorés",
    "uf": "MG",
    "estado": "Minas Gerais",
    "latitude": -19.5007,
    "longitude": -41.0746
  },
  {
    "codigo_ibge": 2900603,
    "nome": "Aiquara",
    "uf": "BA",
    "estado": "Bahia",
    "latitude": -14.1269,
    "longitude": -39.8937
  },
  {
    "codigo_ibge": 2300408,
    "nome": "Aiuaba",
    "uf": "CE",
    "estado": "Ceará",
    "latitude": -6.57122,
    "longitude": -40.1178
  },
  {
    "codigo_ibge": 3101201,
    "nome": "Aiuruoca",
    "uf": "MG",
    "estado": "Minas Gerais",
    "latitude": -21.9736,
    "longitude": -44.6042
  },
  {
    "codigo_ibge": 4300208,
    "nome": "Ajuricaba",
    "uf": "RS",
    "estado": "Rio Grande do Sul",
    "latitude": -28.2342,
    "longitude": -53.7757
  },
  {
    "codigo_ibge": 3101300,
    "nome": "Alagoa",
    "uf": "MG",
    "estado": "Minas Gerais",
    "latitude": -22.171,
    "longitude": -44.6413
  },
  {
    "codigo_ibge": 2500304,
    "nome": "Alagoa Grande",
    "uf": "PB",
    "estado": "Paraíba",
    "latitude": -7.03943,
    "longitude": -35.6206
  },
  {
    "codigo_ibge": 2500403,
    "nome": "Alagoa Nova",
    "uf": "PB",
    "estado": "Paraíba",
    "latitude": -7.05377,
    "longitude": -35.7591
  },
  {
    "codigo_ibge": 2500502,
    "nome": "Alagoinha",
    "uf": "PB",
    "estado": "Paraíba",
    "latitude": -6.94657,
    "longitude": -35.5332
  },
  {
    "codigo_ibge": 2600609,
    "nome": "Alagoinha",
    "uf": "PE",
    "estado": "Pernambuco",
    "latitude": -8.4665,
    "longitude": -36.7788
  },
  {
    "codigo_ibge": 2200251,
    "nome": "Alagoinha do Piauí",
    "uf": "PI",
    "estado": "Piauí",
    "latitude": -7.00039,
    "longitude": -40.9282
  },
  {
    "codigo_ibge": 2900702,
    "nome": "Alagoinhas",
    "uf": "BA",
    "estado": "Bahia",
    "latitude": -12.1335,
    "longitude": -38.4208
  },
  {
    "codigo_ibge": 3500758,
    "nome": "Alambari",
    "uf": "SP",
    "estado": "São Paulo",
    "latitude": -23.5503,
    "longitude": -47.898
  },
  {
    "codigo_ibge": 3101409,
    "nome": "Albertina",
    "uf": "MG",
    "estado": "Minas Gerais",
    "latitude": -22.2018,
    "longitude": -46.6139
  },
  {
    "codigo_ibge": 2100204,
    "nome": "Alcântara",
    "uf": "MA",
    "estado": "Maranhão",
    "latitude": -2.39574,
    "longitude": -44.4062
  },
  {
    "codigo_ibge": 2300507,
    "nome": "Alcântaras",
    "uf": "CE",
    "estado": "Ceará",
    "latitude": -3.58537,
    "longitude": -40.5479
  },
  {
    "codigo_ibge": 2500536,
    "nome": "Alcantil",
    "uf": "PB",
    "estado": "Paraíba",
    "latitude": -7.73668,
    "longitude": -36.0511
  },
  {
    "codigo_ibge": 5000252,
    "nome": "Alcinópolis",
    "uf": "MS",
    "estado": "Mato Grosso do Sul",
    "latitude": -18.3255,
    "longitude": -53.7042
  },
  {
    "codigo_ibge": 2900801,
    "nome": "Alcobaça",
    "uf": "BA",
    "estado": "Bahia",
    "latitude": -17.5195,
    "longitude": -39.2036
  },
  {
    "codigo_ibge": 2100303,
    "nome": "Aldeias Altas",
    "uf": "MA",
    "estado": "Maranhão",
    "latitude": -4.62621,
    "longitude": -43.4689
  },
  {
    "codigo_ibge": 4300307,
    "nome": "Alecrim",
    "uf": "RS",
    "estado": "Rio Grande do Sul",
    "latitude": -27.6579,
    "longitude": -54.7649
  },
  {
    "codigo_ibge": 3200201,
    "nome": "Alegre",
    "uf": "ES",
    "estado": "Espírito Santo",
    "latitude": -20.758,
    "longitude": -41.5382
  },
  {
    "codigo_ibge": 4300406,
    "nome": "Alegrete",
    "uf": "RS",
    "estado": "Rio Grande do Sul",
    "latitude": -29.7902,
    "longitude": -55.7949
  },
  {
    "codigo_ibge": 2200277,
    "nome": "Alegrete do Piauí",
    "uf": "PI",
    "estado": "Piauí",
    "latitude": -7.24196,
    "longitude": -40.8566
  },
  {
    "codigo_ibge": 4300455,
    "nome": "Alegria",
    "uf": "RS",
    "estado": "Rio Grande do Sul",
    "latitude": -27.8345,
    "longitude": -54.0557
  },
  {
    "codigo_ibge": 3101508,
    "nome": "Além Paraíba",
    "uf": "MG",
    "estado": "Minas Gerais",
    "latitude": -21.8797,
    "longitude": -42.7176
  },
  {
    "codigo_ibge": 1500404,
    "nome": "Alenquer",
    "uf": "PA",
    "estado": "Pará",
    "latitude": -1.94623,
    "longitude": -54.7384
  },
  {
    "codigo_ibge": 2400505,
    "nome": "Alexandria",
    "uf": "RN",
    "estado": "Rio Grande do Norte",
    "latitude": -6.40533,
    "longitude": -38.0142
  },
  {
    "codigo_ibge": 5200308,
    "nome": "Alexânia",
    "uf": "GO",
    "estado": "Goiás",
    "latitude": -16.0834,
    "longitude": -48.5076
  },
  {
    "codigo_ibge": 3101607,
    "nome": "Alfenas",
    "uf": "MG",
    "estado": "Minas Gerais",
    "latitude": -21.4256,
    "longitude": -45.9477
  },
  {
    "codigo_ibge": 3200300,
    "nome": "Alfredo Chaves",
    "uf": "ES",
    "estado": "Espírito Santo",
    "latitude": -20.6396,
    "longitude": -40.7543
  },
  {
    "codigo_ibge": 3500808,
    "nome": "Alfredo Marcondes",
    "uf": "SP",
    "estado": "São Paulo",
    "latitude": -21.9527,
    "longitude": -51.414
  },
  {
    "codigo_ibge": 3101631,
    "nome": "Alfredo Vasconcelos",
    "uf": "MG",
    "estado": "Minas Gerais",
    "latitude": -21.1535,
    "longitude": -43.7718
  },
  {
    "codigo_ibge": 4200705,
    "nome": "Alfredo Wagner",
    "uf": "SC",
    "estado": "Santa Catarina",
    "latitude": -27.7001,
    "longitude": -49.3273
  },
  {
    "codigo_ibge": 2500577,
    "nome": "Algodão de Jandaíra",
    "uf": "PB",
    "estado": "Paraíba",
    "latitude": -6.89292,
    "longitude": -36.0129
  },
  {
    "codigo_ibge": 2500601,
    "nome": "Alhandra",
    "uf": "PB",
    "estado": "Paraíba",
    "latitude": -7.42977,
    "longitude": -34.9057
  },
  {
    "codigo_ibge": 2600708,
    "nome": "Aliança",
    "uf": "PE",
    "estado": "Pernambuco",
    "latitude": -7.60398,
    "longitude": -35.2227
  },
  {
    "codigo_ibge": 1700350,
    "nome": "Aliança do Tocantins",
    "uf": "TO",
    "estado": "Tocantins",
    "latitude": -11.3056,
    "longitude": -48.9361
  },
  {
    "codigo_ibge": 2900900,
    "nome": "Almadina",
    "uf": "BA",
    "estado": "Bahia",
    "latitude": -14.7089,
    "longitude": -39.6415
  },
  {
    "codigo_ibge": 1700400,
    "nome": "Almas",
    "uf": "TO",
    "estado": "Tocantins",
    "latitude": -11.5706,
    "longitude": -47.1792
  },
  {
    "codigo_ibge": 1500503,
    "nome": "Almeirim",
    "uf": "PA",
    "estado": "Pará",
    "latitude": -1.52904,
    "longitude": -52.5788
  },
  {
    "codigo_ibge": 3101706,
    "nome": "Almenara",
    "uf": "MG",
    "estado": "Minas Gerais",
    "latitude": -16.1785,
    "longitude": -40.6942
  },
  {
    "codigo_ibge": 2400604,
    "nome": "Almino Afonso",
    "uf": "RN",
    "estado": "Rio Grande do Norte",
    "latitude": -6.1475,
    "longitude": -37.7636
  },
  {
    "codigo_ibge": 4100400,
    "nome": "Almirante Tamandaré",
    "uf": "PR",
    "estado": "Paraná",
    "latitude": -25.3188,
    "longitude": -49.3037
  },
  {
    "codigo_ibge": 4300471,
    "nome": "Almirante Tamandaré do Sul",
    "uf": "RS",
    "estado": "Rio Grande do Sul",
    "latitude": -28.1149,
    "longitude": -52.9142
  },
  {
    "codigo_ibge": 5200506,
    "nome": "Aloândia",
    "uf": "GO",
    "estado": "Goiás",
    "latitude": -17.7292,
    "longitude": -49.4769
  },
  {
    "codigo_ibge": 3101805,
    "nome": "Alpercata",
    "uf": "MG",
    "estado": "Minas Gerais",
    "latitude": -18.974,
    "longitude": -41.97
  },
  {
    "codigo_ibge": 4300505,
    "nome": "Alpestre",
    "uf": "RS",
    "estado": "Rio Grande do Sul",
    "latitude": -27.2502,
    "longitude": -53.0341
  },
  {
    "codigo_ibge": 3101904,
    "nome": "Alpinópolis",
    "uf": "MG",
    "estado": "Minas Gerais",
    "latitude": -20.8631,
    "longitude": -46.3878
  },
  {
    "codigo_ibge": 5100250,
    "nome": "Alta Floresta",
    "uf": "MT",
    "estado": "Mato Grosso",
    "latitude": -9.86674,
    "longitude": -56.0867
  },
  {
    "codigo_ibge": 1100015,
    "nome": "Alta Floresta D'Oeste",
    "uf": "RO",
    "estado": "Rondônia",
    "latitude": -11.9283,
    "longitude": -61.9953
  },
  {
    "codigo_ibge": 3500907,
    "nome": "Altair",
    "uf": "SP",
    "estado": "São Paulo",
    "latitude": -20.5242,
    "longitude": -49.0571
  },
  {
    "codigo_ibge": 1500602,
    "nome": "Altamira",
    "uf": "PA",
    "estado": "Pará",
    "latitude": -3.20407,
    "longitude": -52.21
  },
  {
    "codigo_ibge": 2100402,
    "nome": "Altamira do Maranhão",
    "uf": "MA",
    "estado": "Maranhão",
    "latitude": -4.16598,
    "longitude": -45.4706
  },
  {
    "codigo_ibge": 4100459,
    "nome": "Altamira do Paraná",
    "uf": "PR",
    "estado": "Paraná",
    "latitude": -24.7983,
    "longitude": -52.7128
  },
  {
    "codigo_ibge": 2300606,
    "nome": "Altaneira",
    "uf": "CE",
    "estado": "Ceará",
    "latitude": -6.99837,
    "longitude": -39.7356
  },
  {
    "codigo_ibge": 3102001,
    "nome": "Alterosa",
    "uf": "MG",
    "estado": "Minas Gerais",
    "latitude": -21.2488,
    "longitude": -46.1387
  },
  {
    "codigo_ibge": 2600807,
    "nome": "Altinho",
    "uf": "PE",
    "estado": "Pernambuco",
    "latitude": -8.48482,
    "longitude": -36.0644
  },
  {
    "codigo_ibge": 3501004,
    "nome": "Altinópolis",
    "uf": "SP",
    "estado": "São Paulo",
    "latitude": -21.0214,
    "longitude": -47.3712
  },
  {
    "codigo_ibge": 3501103,
    "nome": "Alto Alegre",
    "uf": "SP",
    "estado": "São Paulo",
    "latitude": -21.5811,
    "longitude": -50.168
  },
  {
    "codigo_ibge": 1400050,
    "nome": "Alto Alegre",
    "uf": "RR",
    "estado": "Roraima",
    "latitude": 2.98858,
    "longitude": -61.3072
  },
  {
    "codigo_ibge": 4300554,
    "nome": "Alto Alegre",
    "uf": "RS",
    "estado": "Rio Grande do Sul",
    "latitude": -28.7769,
    "longitude": -52.9893
  },
  {
    "codigo_ibge": 2100436,
    "nome": "Alto Alegre do Maranhão",
    "uf": "MA",
    "estado": "Maranhão",
    "latitude": -4.213,
    "longitude": -44.446
  },
  {
    "codigo_ibge": 2100477,
    "nome": "Alto Alegre do Pindaré",
    "uf": "MA",
    "estado": "Maranhão",
    "latitude": -3.66689,
    "longitude": -45.8421
  },
  {
    "codigo_ibge": 1100379,
    "nome": "Alto Alegre dos Parecis",
    "uf": "RO",
    "estado": "Rondônia",
    "latitude": -12.132,
    "longitude": -61.835
  },
  {
    "codigo_ibge": 5100300,
    "nome": "Alto Araguaia",
    "uf": "MT",
    "estado": "Mato Grosso",
    "latitude": -17.3153,
    "longitude": -53.2181
  },
  {
    "codigo_ibge": 4200754,
    "nome": "Alto Bela Vista",
    "uf": "SC",
    "estado": "Santa Catarina",
    "latitude": -27.4333,
    "longitude": -51.9044
  },
  {
    "codigo_ibge": 5100359,
    "nome": "Alto Boa Vista",
    "uf": "MT",
    "estado": "Mato Grosso",
    "latitude": -11.6732,
    "longitude": -51.3883
  },
  {
    "codigo_ibge": 3102050,
    "nome": "Alto Caparaó",
    "uf": "MG",
    "estado": "Minas Gerais",
    "latitude": -20.431,
    "longitude": -41.8738
  },
  {
    "codigo_ibge": 2400703,
    "nome": "Alto do Rodrigues",
    "uf": "RN",
    "estado": "Rio Grande do Norte",
    "latitude": -5.28186,
    "longitude": -36.75
  },
  {
    "codigo_ibge": 4300570,
    "nome": "Alto Feliz",
    "uf": "RS",
    "estado": "Rio Grande do Sul",
    "latitude": -29.3919,
    "longitude": -51.3123
  },
  {
    "codigo_ibge": 5100409,
    "nome": "Alto Garças",
    "uf": "MT",
    "estado": "Mato Grosso",
    "latitude": -16.9462,
    "longitude": -53.5272
  },
  {
    "codigo_ibge": 5200555,
    "nome": "Alto Horizonte",
    "uf": "GO",
    "estado": "Goiás",
    "latitude": -14.1978,
    "longitude": -49.3378
  },
  {
    "codigo_ibge": 3153509,
    "nome": "Alto Jequitibá",
    "uf": "MG",
    "estado": "Minas Gerais",
    "latitude": -20.4208,
    "longitude": -41.967
  },
  {
    "codigo_ibge": 2200301,
    "nome": "Alto Longá",
    "uf": "PI",
    "estado": "Piauí",
    "latitude": -5.25634,
    "longitude": -42.2096
  },
  {
    "codigo_ibge": 5100508,
    "nome": "Alto Paraguai",
    "uf": "MT",
    "estado": "Mato Grosso",
    "latitude": -14.5137,
    "longitude": -56.4776
  },
  {
    "codigo_ibge": 4128625,
    "nome": "Alto Paraíso",
    "uf": "PR",
    "estado": "Paraná",
    "latitude": -26.1146,
    "longitude": -52.7469
  },
  {
    "codigo_ibge": 1100403,
    "nome": "Alto Paraíso",
    "uf": "RO",
    "estado": "Rondônia",
    "latitude": -9.71429,
    "longitude": -63.3188
  },
  {
    "codigo_ibge": 5200605,
    "nome": "Alto Paraíso de Goiás",
    "uf": "GO",
    "estado": "Goiás",
    "latitude": -14.1305,
    "longitude": -47.51
  },
  {
    "codigo_ibge": 4100608,
    "nome": "Alto Paraná",
    "uf": "PR",
    "estado": "Paraná",
    "latitude": -23.1312,
    "longitude": -52.3189
  },
  {
    "codigo_ibge": 2100501,
    "nome": "Alto Parnaíba",
    "uf": "MA",
    "estado": "Maranhão",
    "latitude": -9.10273,
    "longitude": -45.9303
  },
  {
    "codigo_ibge": 4100707,
    "nome": "Alto Piquiri",
    "uf": "PR",
    "estado": "Paraná",
    "latitude": -24.0224,
    "longitude": -53.44
  },
  {
    "codigo_ibge": 3102100,
    "nome": "Alto Rio Doce",
    "uf": "MG",
    "estado": "Minas Gerais",
    "latitude": -21.0281,
    "longitude": -43.4067
  },
  {
    "codigo_ibge": 3200359,
    "nome": "Alto Rio Novo",
    "uf": "ES",
    "estado": "Espírito Santo",
    "latitude": -19.0618,
    "longitude": -41.0209
  },
  {
    "codigo_ibge": 2300705,
    "nome": "Alto Santo",
    "uf": "CE",
    "estado": "Ceará",
    "latitude": -5.50894,
    "longitude": -38.2743
  },
  {
    "codigo_ibge": 5100607,
    "nome": "Alto Taquari",
    "uf": "MT",
    "estado": "Mato Grosso",
    "latitude": -17.8241,
    "longitude": -53.2792
  },
  {
    "codigo_ibge": 4100509,
    "nome": "Altônia",
    "uf": "PR",
    "estado": "Paraná",
    "latitude": -23.8759,
    "longitude": -53.8958
  },
  {
    "codigo_ibge": 2200400,
    "nome": "Altos",
    "uf": "PI",
    "estado": "Piauí",
    "latitude": -5.03888,
    "longitude": -42.4612
  },
  {
    "codigo_ibge": 3501152,
    "nome": "Alumínio",
    "uf": "SP",
    "estado": "São Paulo",
    "latitude": -23.5306,
    "longitude": -47.2546
  },
  {
    "codigo_ibge": 1300029,
    "nome": "Alvarães",
    "uf": "AM",
    "estado": "Amazonas",
    "latitude": -3.22727,
    "longitude": -64.8007
  },
  {
    "codigo_ibge": 3102209,
    "nome": "Alvarenga",
    "uf": "MG",
    "estado": "Minas Gerais",
    "latitude": -19.4174,
    "longitude": -41.7317
  },
  {
    "codigo_ibge": 3501202,
    "nome": "Álvares Florence",
    "uf": "SP",
    "estado": "São Paulo",
    "latitude": -20.3203,
    "longitude": -49.9141
  },
  {
    "codigo_ibge": 3501301,
    "nome": "Álvares Machado",
    "uf": "SP",
    "estado": "São Paulo",
    "latitude": -22.0764,
    "longitude": -51.4722
  },
  {
    "codigo_ibge": 3501400,
    "nome": "Álvaro de Carvalho",
    "uf": "SP",
    "estado": "São Paulo",
    "latitude": -22.0841,
    "longitude": -49.719
  },
  {
    "codigo_ibge": 3501509,
    "nome": "Alvinlândia",
    "uf": "SP",
    "estado": "São Paulo",
    "latitude": -22.4435,
    "longitude": -49.7623
  },
  {
    "codigo_ibge": 3102308,
    "nome": "Alvinópolis",
    "uf": "MG",
    "estado": "Minas Gerais",
    "latitude": -20.1098,
    "longitude": -43.0535
  },
  {
    "codigo_ibge": 1700707,
    "nome": "Alvorada",
    "uf": "TO",
    "estado": "Tocantins",
    "latitude": -12.4785,
    "longitude": -49.1249
  },
  {
    "codigo_ibge": 4300604,
    "nome": "Alvorada",
    "uf": "RS",
    "estado": "Rio Grande do Sul",
    "latitude": -29.9914,
    "longitude": -51.0809
  },
  {
    "codigo_ibge": 1100346,
    "nome": "Alvorada D'Oeste",
    "uf": "RO",
    "estado": "Rondônia",
    "latitude": -11.3463,
    "longitude": -62.2847
  },
  {
    "codigo_ibge": 3102407,
    "nome": "Alvorada de Minas",
    "uf": "MG",
    "estado": "Minas Gerais",
    "latitude": -18.7334,
    "longitude": -43.3638
  },
  {
    "codigo_ibge": 2200459,
    "nome": "Alvorada do Gurguéia",
    "uf": "PI",
    "estado": "Piauí",
    "latitude": -8.42418,
    "longitude": -43.777
  },
  {
    "codigo_ibge": 5200803,
    "nome": "Alvorada do Norte",
    "uf": "GO",
    "estado": "Goiás",
    "latitude": -14.4797,
    "longitude": -46.491
  },
  {
    "codigo_ibge": 4100806,
    "nome": "Alvorada do Sul",
    "uf": "PR",
    "estado": "Paraná",
    "latitude": -22.7813,
    "longitude": -51.2297
  },
  {
    "codigo_ibge": 1400027,
    "nome": "Amajari",
    "uf": "RR",
    "estado": "Roraima",
    "latitude": 3.64571,
    "longitude": -61.3692
  },
  {
    "codigo_ibge": 5000609,
    "nome": "Amambai",
    "uf": "MS",
    "estado": "Mato Grosso do Sul",
    "latitude": -23.1058,
    "longitude": -55.2253
  },
  {
    "codigo_ibge": 1600105,
    "nome": "Amapá",
    "uf": "AP",
    "estado": "Amapá",
    "latitude": 2.05267,
    "longitude": -50.7957
  },
  {
    "codigo_ibge": 2100550,
    "nome": "Amapá do Maranhão",
    "uf": "MA",
    "estado": "Maranhão",
    "latitude": -1.67524,
    "longitude": -46.0024
  },
  {
    "codigo_ibge": 4100905,
    "nome": "Amaporã",
    "uf": "PR",
    "estado": "Paraná",
    "latitude": -23.0943,
    "longitude": -52.7866
  },
  {
    "codigo_ibge": 2600906,
    "nome": "Amaraji",
    "uf": "PE",
    "estado": "Pernambuco",
    "latitude": -8.37691,
    "longitude": -35.4501
  },
  {
    "codigo_ibge": 4300638,
    "nome": "Amaral Ferrador",
    "uf": "RS",
    "estado": "Rio Grande do Sul",
    "latitude": -30.8756,
    "longitude": -52.2509
  },
  {
    "codigo_ibge": 5200829,
    "nome": "Amaralina",
    "uf": "GO",
    "estado": "Goiás",
    "latitude": -13.9236,
    "longitude": -49.2962
  },
  {
    "codigo_ibge": 2200509,
    "nome": "Amarante",
    "uf": "PI",
    "estado": "Piauí",
    "latitude": -6.24304,
    "longitude": -42.8433
  },
  {
    "codigo_ibge": 2100600,
    "nome": "Amarante do Maranhão",
    "uf": "MA",
    "estado": "Maranhão",
    "latitude": -5.56913,
    "longitude": -46.7473
  },
  {
    "codigo_ibge": 2901007,
    "nome": "Amargosa",
    "uf": "BA",
    "estado": "Bahia",
    "latitude": -13.0215,
    "longitude": -39.602
  },
  {
    "codigo_ibge": 1300060,
    "nome": "Amaturá",
    "uf": "AM",
    "estado": "Amazonas",
    "latitude": -3.37455,
    "longitude": -68.2005
  },
  {
    "codigo_ibge": 2901106,
    "nome": "Amélia Rodrigues",
    "uf": "BA",
    "estado": "Bahia",
    "latitude": -12.3914,
    "longitude": -38.7563
  },
  {
    "codigo_ibge": 2901155,
    "nome": "América Dourada",
    "uf": "BA",
    "estado": "Bahia",
    "latitude": -11.4429,
    "longitude": -41.439
  },
  {
    "codigo_ibge": 3501608,
    "nome": "Americana",
    "uf": "SP",
    "estado": "São Paulo",
    "latitude": -22.7374,
    "longitude": -47.3331
  },
  {
    "codigo_ibge": 5200852,
    "nome": "Americano do Brasil",
    "uf": "GO",
    "estado": "Goiás",
    "latitude": -16.2514,
    "longitude": -49.9831
  },
  {
    "codigo_ibge": 3501707,
    "nome": "Américo Brasiliense",
    "uf": "SP",
    "estado": "São Paulo",
    "latitude": -21.7288,
    "longitude": -48.1147
  },
  {
    "codigo_ibge": 3501806,
    "nome": "Américo de Campos",
    "uf": "SP",
    "estado": "São Paulo",
    "latitude": -20.2985,
    "longitude": -49.7359
  },
  {
    "codigo_ibge": 4300646,
    "nome": "Ametista do Sul",
    "uf": "RS",
    "estado": "Rio Grande do Sul",
    "latitude": -27.3607,
    "longitude": -53.183
  },
  {
    "codigo_ibge": 2300754,
    "nome": "Amontada",
    "uf": "CE",
    "estado": "Ceará",
    "latitude": -3.36017,
    "longitude": -39.8288
  },
  {
    "codigo_ibge": 5200902,
    "nome": "Amorinópolis",
    "uf": "GO",
    "estado": "Goiás",
    "latitude": -16.6151,
    "longitude": -51.0919
  },
  {
    "codigo_ibge": 2500734,
    "nome": "Amparo",
    "uf": "PB",
    "estado": "Paraíba",
    "latitude": -7.55502,
    "longitude": -37.0628
  },
  {
    "codigo_ibge": 3501905,
    "nome": "Amparo",
    "uf": "SP",
    "estado": "São Paulo",
    "latitude": -22.7088,
    "longitude": -46.772
  },
  {
    "codigo_ibge": 2800100,
    "nome": "Amparo de São Francisco",
    "uf": "SE",
    "estado": "Sergipe",
    "latitude": -10.1348,
    "longitude": -36.935
  },
  {
    "codigo_ibge": 3102506,
    "nome": "Amparo do Serra",
    "uf": "MG",
    "estado": "Minas Gerais",
    "latitude": -20.5051,
    "longitude": -42.8009
  },
  {
    "codigo_ibge": 4101002,
    "nome": "Ampére",
    "uf": "PR",
    "estado": "Paraná",
    "latitude": -25.9168,
    "longitude": -53.4686
  },
  {
    "codigo_ibge": 2700201,
    "nome": "Anadia",
    "uf": "AL",
    "estado": "Alagoas",
    "latitude": -9.68489,
    "longitude": -36.3078
  },
  {
    "codigo_ibge": 2901205,
    "nome": "Anagé",
    "uf": "BA",
    "estado": "Bahia",
    "latitude": -14.6151,
    "longitude": -41.1356
  },
  {
    "codigo_ibge": 4101051,
    "nome": "Anahy",
    "uf": "PR",
    "estado": "Paraná",
    "latitude": -24.6449,
    "longitude": -53.1332
  },
  {
    "codigo_ibge": 1500701,
    "nome": "Anajás",
    "uf": "PA",
    "estado": "Pará",
    "latitude": -0.996811,
    "longitude": -49.9354
  },
  {
    "codigo_ibge": 2100709,
    "nome": "Anajatuba",
    "uf": "MA",
    "estado": "Maranhão",
    "latitude": -3.26269,
    "longitude": -44.6126
  },
  {
    "codigo_ibge": 3502002,
    "nome": "Analândia",
    "uf": "SP",
    "estado": "São Paulo",
    "latitude": -22.1289,
    "longitude": -47.6619
  },
  {
    "codigo_ibge": 1300086,
    "nome": "Anamã",
    "uf": "AM",
    "estado": "Amazonas",
    "latitude": -3.56697,
    "longitude": -61.3963
  },
  {
    "codigo_ibge": 1701002,
    "nome": "Ananás",
    "uf": "TO",
    "estado": "Tocantins",
    "latitude": -6.36437,
    "longitude": -48.0735
  },
  {
    "codigo_ibge": 1500800,
    "nome": "Ananindeua",
    "uf": "PA",
    "estado": "Pará",
    "latitude": -1.36391,
    "longitude": -48.3743
  },
  {
    "codigo_ibge": 5201108,
    "nome": "Anápolis",
    "uf": "GO",
    "estado": "Goiás",
    "latitude": -16.3281,
    "longitude": -48.953
  },
  {
    "codigo_ibge": 1500859,
    "nome": "Anapu",
    "uf": "PA",
    "estado": "Pará",
    "latitude": -3.46985,
    "longitude": -51.2003
  },
  {
    "codigo_ibge": 2100808,
    "nome": "Anapurus",
    "uf": "MA",
    "estado": "Maranhão",
    "latitude": -3.67577,
    "longitude": -43.1014
  },
  {
    "codigo_ibge": 5000708,
    "nome": "Anastácio",
    "uf": "MS",
    "estado": "Mato Grosso do Sul",
    "latitude": -20.4823,
    "longitude": -55.8104
  },
  {
    "codigo_ibge": 5000807,
    "nome": "Anaurilândia",
    "uf": "MS",
    "estado": "Mato Grosso do Sul",
    "latitude": -22.1852,
    "longitude": -52.7191
  },
  {
    "codigo_ibge": 4200804,
    "nome": "Anchieta",
    "uf": "SC",
    "estado": "Santa Catarina",
    "latitude": -26.5382,
    "longitude": -53.3319
  },
  {
    "codigo_ibge": 3200409,
    "nome": "Anchieta",
    "uf": "ES",
    "estado": "Espírito Santo",
    "latitude": -20.7955,
    "longitude": -40.6425
  },
  {
    "codigo_ibge": 2901304,
    "nome": "Andaraí",
    "uf": "BA",
    "estado": "Bahia",
    "latitude": -12.8049,
    "longitude": -41.3297
  },
  {
    "codigo_ibge": 4101101,
    "nome": "Andirá",
    "uf": "PR",
    "estado": "Paraná",
    "latitude": -23.0533,
    "longitude": -50.2304
  },
  {
    "codigo_ibge": 2901353,
    "nome": "Andorinha",
    "uf": "BA",
    "estado": "Bahia",
    "latitude": -10.3482,
    "longitude": -39.8391
  },
  {
    "codigo_ibge": 3102605,
    "nome": "Andradas",
    "uf": "MG",
    "estado": "Minas Gerais",
    "latitude": -22.0695,
    "longitude": -46.5724
  },
  {
    "codigo_ibge": 3502101,
    "nome": "Andradina",
    "uf": "SP",
    "estado": "São Paulo",
    "latitude": -20.8948,
    "longitude": -51.3786
  },
  {
    "codigo_ibge": 4300661,
    "nome": "André da Rocha",
    "uf": "RS",
    "estado": "Rio Grande do Sul",
    "latitude": -28.6283,
    "longitude": -51.5797
  },
  {
    "codigo_ibge": 3102803,
    "nome": "Andrelândia",
    "uf": "MG",
    "estado": "Minas Gerais",
    "latitude": -21.7411,
    "longitude": -44.3117
  },
  {
    "codigo_ibge": 3502200,
    "nome": "Angatuba",
    "uf": "SP",
    "estado": "São Paulo",
    "latitude": -23.4917,
    "longitude": -48.4139
  },
  {
    "codigo_ibge": 3102852,
    "nome": "Angelândia",
    "uf": "MG",
    "estado": "Minas Gerais",
    "latitude": -17.7279,
    "longitude": -42.2641
  },
  {
    "codigo_ibge": 5000856,
    "nome": "Angélica",
    "uf": "MS",
    "estado": "Mato Grosso do Sul",
    "latitude": -22.1527,
    "longitude": -53.7708
  },
  {
    "codigo_ibge": 2601003,
    "nome": "Angelim",
    "uf": "PE",
    "estado": "Pernambuco",
    "latitude": -8.88429,
    "longitude": -36.2902
  },
  {
    "codigo_ibge": 4200903,
    "nome": "Angelina",
    "uf": "SC",
    "estado": "Santa Catarina",
    "latitude": -27.5704,
    "longitude": -48.9879
  },
  {
    "codigo_ibge": 2901403,
    "nome": "Angical",
    "uf": "BA",
    "estado": "Bahia",
    "latitude": -12.0063,
    "longitude": -44.7003
  },
  {
    "codigo_ibge": 2200608,
    "nome": "Angical do Piauí",
    "uf": "PI",
    "estado": "Piauí",
    "latitude": -6.08786,
    "longitude": -42.74
  },
  {
    "codigo_ibge": 1701051,
    "nome": "Angico",
    "uf": "TO",
    "estado": "Tocantins",
    "latitude": -6.39179,
    "longitude": -47.8611
  },
  {
    "codigo_ibge": 2400802,
    "nome": "Angicos",
    "uf": "RN",
    "estado": "Rio Grande do Norte",
    "latitude": -5.65792,
    "longitude": -36.6094
  },
  {
    "codigo_ibge": 3300100,
    "nome": "Angra dos Reis",
    "uf": "RJ",
    "estado": "Rio de Janeiro",
    "latitude": -23.0011,
    "longitude": -44.3196
  },
  {
    "codigo_ibge": 2901502,
    "nome": "Anguera",
    "uf": "BA",
    "estado": "Bahia",
    "latitude": -12.1462,
    "longitude": -39.2462
  },
  {
    "codigo_ibge": 4101150,
    "nome": "Ângulo",
    "uf": "PR",
    "estado": "Paraná",
    "latitude": -23.1946,
    "longitude": -51.9154
  },
  {
    "codigo_ibge": 5201207,
    "nome": "Anhanguera",
    "uf": "GO",
    "estado": "Goiás",
    "latitude": -18.3339,
    "longitude": -48.2204
  },
  {
    "codigo_ibge": 3502309,
    "nome": "Anhembi",
    "uf": "SP",
    "estado": "São Paulo",
    "latitude": -22.793,
    "longitude": -48.1336
  },
  {
    "codigo_ibge": 3502408,
    "nome": "Anhumas",
    "uf": "SP",
    "estado": "São Paulo",
    "latitude": -22.2934,
    "longitude": -51.3895
  },
  {
    "codigo_ibge": 5201306,
    "nome": "Anicuns",
    "uf": "GO",
    "estado": "Goiás",
    "latitude": -16.4642,
    "longitude": -49.9617
  },
  {
    "codigo_ibge": 2200707,
    "nome": "Anísio de Abreu",
    "uf": "PI",
    "estado": "Piauí",
    "latitude": -9.18564,
    "longitude": -43.0494
  },
  {
    "codigo_ibge": 4201000,
    "nome": "Anita Garibaldi",
    "uf": "SC",
    "estado": "Santa Catarina",
    "latitude": -27.6897,
    "longitude": -51.1271
  },
  {
    "codigo_ibge": 4201109,
    "nome": "Anitápolis",
    "uf": "SC",
    "estado": "Santa Catarina",
    "latitude": -27.9012,
    "longitude": -49.1316
  },
  {
    "codigo_ibge": 1300102,
    "nome": "Anori",
    "uf": "AM",
    "estado": "Amazonas",
    "latitude": -3.74603,
    "longitude": -61.6575
  },
  {
    "codigo_ibge": 4300703,
    "nome": "Anta Gorda",
    "uf": "RS",
    "estado": "Rio Grande do Sul",
    "latitude": -28.9698,
    "longitude": -52.0102
  },
  {
    "codigo_ibge": 2901601,
    "nome": "Antas",
    "uf": "BA",
    "estado": "Bahia",
    "latitude": -10.3856,
    "longitude": -38.3401
  },
  {
    "codigo_ibge": 4101200,
    "nome": "Antonina",
    "uf": "PR",
    "estado": "Paraná",
    "latitude": -25.4386,
    "longitude": -48.7191
  },
  {
    "codigo_ibge": 2300804,
    "nome": "Antonina do Norte",
    "uf": "CE",
    "estado": "Ceará",
    "latitude": -6.76919,
    "longitude": -39.987
  },
  {
    "codigo_ibge": 2200806,
    "nome": "Antônio Almeida",
    "uf": "PI",
    "estado": "Piauí",
    "latitude": -7.21276,
    "longitude": -44.1889
  },
  {
    "codigo_ibge": 2901700,
    "nome": "Antônio Cardoso",
    "uf": "BA",
    "estado": "Bahia",
    "latitude": -12.4335,
    "longitude": -39.1176
  },
  {
    "codigo_ibge": 4201208,
    "nome": "Antônio Carlos",
    "uf": "SC",
    "estado": "Santa Catarina",
    "latitude": -27.5191,
    "longitude": -48.766
  },
  {
    "codigo_ibge": 3102902,
    "nome": "Antônio Carlos",
    "uf": "MG",
    "estado": "Minas Gerais",
    "latitude": -21.321,
    "longitude": -43.7451
  },
  {
    "codigo_ibge": 3103009,
    "nome": "Antônio Dias",
    "uf": "MG",
    "estado": "Minas Gerais",
    "latitude": -19.6491,
    "longitude": -42.8732
  },
  {
    "codigo_ibge": 2901809,
    "nome": "Antônio Gonçalves",
    "uf": "BA",
    "estado": "Bahia",
    "latitude": -10.5767,
    "longitude": -40.2785
  },
  {
    "codigo_ibge": 5000906,
    "nome": "Antônio João",
    "uf": "MS",
    "estado": "Mato Grosso do Sul",
    "latitude": -22.1927,
    "longitude": -55.9517
  },
  {
    "codigo_ibge": 2400901,
    "nome": "Antônio Martins",
    "uf": "RN",
    "estado": "Rio Grande do Norte",
    "latitude": -6.21367,
    "longitude": -37.8834
  },
  {
    "codigo_ibge": 4101309,
    "nome": "Antônio Olinto",
    "uf": "PR",
    "estado": "Paraná",
    "latitude": -25.9804,
    "longitude": -50.1972
  },
  {
    "codigo_ibge": 4300802,
    "nome": "Antônio Prado",
    "uf": "RS",
    "estado": "Rio Grande do Sul",
    "latitude": -28.8565,
    "longitude": -51.2883
  },
  {
    "codigo_ibge": 3103108,
    "nome": "Antônio Prado de Minas",
    "uf": "MG",
    "estado": "Minas Gerais",
    "latitude": -21.0192,
    "longitude": -42.1109
  },
  {
    "codigo_ibge": 2500775,
    "nome": "Aparecida",
    "uf": "PB",
    "estado": "Paraíba",
    "latitude": -6.78466,
    "longitude": -38.0803
  },
  {
    "codigo_ibge": 3502507,
    "nome": "Aparecida",
    "uf": "SP",
    "estado": "São Paulo",
    "latitude": -22.8495,
    "longitude": -45.2325
  },
  {
    "codigo_ibge": 3502606,
    "nome": "Aparecida d'Oeste",
    "uf": "SP",
    "estado": "São Paulo",
    "latitude": -20.4487,
    "longitude": -50.8835
  },
  {
    "codigo_ibge": 5201405,
    "nome": "Aparecida de Goiânia",
    "uf": "GO",
    "estado": "Goiás",
    "latitude": -16.8198,
    "longitude": -49.2469
  },
  {
    "codigo_ibge": 5201454,
    "nome": "Aparecida do Rio Doce",
    "uf": "GO",
    "estado": "Goiás",
    "latitude": -18.2941,
    "longitude": -51.1516
  },
  {
    "codigo_ibge": 1701101,
    "nome": "Aparecida do Rio Negro",
    "uf": "TO",
    "estado": "Tocantins",
    "latitude": -9.94139,
    "longitude": -47.9638
  },
  {
    "codigo_ibge": 5001003,
    "nome": "Aparecida do Taboado",
    "uf": "MS",
    "estado": "Mato Grosso do Sul",
    "latitude": -20.0873,
    "longitude": -51.0961
  },
  {
    "codigo_ibge": 3300159,
    "nome": "Aperibé",
    "uf": "RJ",
    "estado": "Rio de Janeiro",
    "latitude": -21.6252,
    "longitude": -42.1017
  },
  {
    "codigo_ibge": 3200508,
    "nome": "Apiacá",
    "uf": "ES",
    "estado": "Espírito Santo",
    "latitude": -21.1523,
    "longitude": -41.5693
  },
  {
    "codigo_ibge": 5100805,
    "nome": "Apiacás",
    "uf": "MT",
    "estado": "Mato Grosso",
    "latitude": -9.53981,
    "longitude": -57.4587
  },
  {
    "codigo_ibge": 3502705,
    "nome": "Apiaí",
    "uf": "SP",
    "estado": "São Paulo",
    "latitude": -24.5108,
    "longitude": -48.8443
  },
  {
    "codigo_ibge": 2100832,
    "nome": "Apicum-Açu",
    "uf": "MA",
    "estado": "Maranhão",
    "latitude": -1.45862,
    "longitude": -45.0864
  },
  {
    "codigo_ibge": 4201257,
    "nome": "Apiúna",
    "uf": "SC",
    "estado": "Santa Catarina",
    "latitude": -27.0375,
    "longitude": -49.3885
  },
  {
    "codigo_ibge": 2401008,
    "nome": "Apodi",
    "uf": "RN",
    "estado": "Rio Grande do Norte",
    "latitude": -5.65349,
    "longitude": -37.7946
  },
  {
    "codigo_ibge": 2901908,
    "nome": "Aporá",
    "uf": "BA",
    "estado": "Bahia",
    "latitude": -11.6577,
    "longitude": -38.0814
  },
  {
    "codigo_ibge": 5201504,
    "nome": "Aporé",
    "uf": "GO",
    "estado": "Goiás",
    "latitude": -18.9607,
    "longitude": -51.9232
  },
  {
    "codigo_ibge": 2901957,
    "nome": "Apuarema",
    "uf": "BA",
    "estado": "Bahia",
    "latitude": -13.8542,
    "longitude": -39.7501
  },
  {
    "codigo_ibge": 4101408,
    "nome": "Apucarana",
    "uf": "PR",
    "estado": "Paraná",
    "latitude": -23.55,
    "longitude": -51.4635
  },
  {
    "codigo_ibge": 1300144,
    "nome": "Apuí",
    "uf": "AM",
    "estado": "Amazonas",
    "latitude": -7.19409,
    "longitude": -59.896
  },
  {
    "codigo_ibge": 2300903,
    "nome": "Apuiarés",
    "uf": "CE",
    "estado": "Ceará",
    "latitude": -3.94506,
    "longitude": -39.4359
  },
  {
    "codigo_ibge": 2800209,
    "nome": "Aquidabã",
    "uf": "SE",
    "estado": "Sergipe",
    "latitude": -10.278,
    "longitude": -37.0148
  },
  {
    "codigo_ibge": 5001102,
    "nome": "Aquidauana",
    "uf": "MS",
    "estado": "Mato Grosso do Sul",
    "latitude": -20.4666,
    "longitude": -55.7868
  },
  {
    "codigo_ibge": 2301000,
    "nome": "Aquiraz",
    "uf": "CE",
    "estado": "Ceará",
    "latitude": -3.89929,
    "longitude": -38.3896
  },
  {
    "codigo_ibge": 4201273,
    "nome": "Arabutã",
    "uf": "SC",
    "estado": "Santa Catarina",
    "latitude": -27.1587,
    "longitude": -52.1423
  },
  {
    "codigo_ibge": 2500809,
    "nome": "Araçagi",
    "uf": "PB",
    "estado": "Paraíba",
    "latitude": -6.84374,
    "longitude": -35.3737
  },
  {
    "codigo_ibge": 3103207,
    "nome": "Araçaí",
    "uf": "MG",
    "estado": "Minas Gerais",
    "latitude": -19.1955,
    "longitude": -44.2493
  },
  {
    "codigo_ibge": 2800308,
    "nome": "Aracaju",
    "uf": "SE",
    "estado": "Sergipe",
    "latitude": -10.9091,
    "longitude": -37.0677
  },
  {
    "codigo_ibge": 3502754,
    "nome": "Araçariguama",
    "uf": "SP",
    "estado": "São Paulo",
    "latitude": -23.4366,
    "longitude": -47.0608
  },
  {
    "codigo_ibge": 2902054,
    "nome": "Araças",
    "uf": "BA",
    "estado": "Bahia",
    "latitude": -12.22,
    "longitude": -38.2027
  },
  {
    "codigo_ibge": 2301109,
    "nome": "Aracati",
    "uf": "CE",
    "estado": "Ceará",
    "latitude": -4.55826,
    "longitude": -37.7679
  },
  {
    "codigo_ibge": 2902005,
    "nome": "Aracatu",
    "uf": "BA",
    "estado": "Bahia",
    "latitude": -14.428,
    "longitude": -41.4648
  },
  {
    "codigo_ibge": 3502804,
    "nome": "Araçatuba",
    "uf": "SP",
    "estado": "São Paulo",
    "latitude": -21.2076,
    "longitude": -50.4401
  },
  {
    "codigo_ibge": 2902104,
    "nome": "Araci",
    "uf": "BA",
    "estado": "Bahia",
    "latitude": -11.3253,
    "longitude": -38.9584
  },
  {
    "codigo_ibge": 3103306,
    "nome": "Aracitaba",
    "uf": "MG",
    "estado": "Minas Gerais",
    "latitude": -21.3446,
    "longitude": -43.3736
  },
  {
    "codigo_ibge": 2601052,
    "nome": "Araçoiaba",
    "uf": "PE",
    "estado": "Pernambuco",
    "latitude": -7.78391,
    "longitude": -35.0809
  },
  {
    "codigo_ibge": 2301208,
    "nome": "Aracoiaba",
    "uf": "CE",
    "estado": "Ceará",
    "latitude": -4.36872,
    "longitude": -38.8125
  },
  {
    "codigo_ibge": 3502903,
    "nome": "Araçoiaba da Serra",
    "uf": "SP",
    "estado": "São Paulo",
    "latitude": -23.5029,
    "longitude": -47.6166
  },
  {
    "codigo_ibge": 3200607,
    "nome": "Aracruz",
    "uf": "ES",
    "estado": "Espírito Santo",
    "latitude": -19.82,
    "longitude": -40.2764
  },
  {
    "codigo_ibge": 5201603,
    "nome": "Araçu",
    "uf": "GO",
    "estado": "Goiás",
    "latitude": -16.3563,
    "longitude": -49.6804
  },
  {
    "codigo_ibge": 3103405,
    "nome": "Araçuaí",
    "uf": "MG",
    "estado": "Minas Gerais",
    "latitude": -16.8523,
    "longitude": -42.0637
  },
  {
    "codigo_ibge": 5201702,
    "nome": "Aragarças",
    "uf": "GO",
    "estado": "Goiás",
    "latitude": -15.8955,
    "longitude": -52.2372
  },
  {
    "codigo_ibge": 5201801,
    "nome": "Aragoiânia",
    "uf": "GO",
    "estado": "Goiás",
    "latitude": -16.9087,
    "longitude": -49.4476
  },
  {
    "codigo_ibge": 1701309,
    "nome": "Aragominas",
    "uf": "TO",
    "estado": "Tocantins",
    "latitude": -7.16005,
    "longitude": -48.5291
  },
  {
    "codigo_ibge": 1701903,
    "nome": "Araguacema",
    "uf": "TO",
    "estado": "Tocantins",
    "latitude": -8.80755,
    "longitude": -49.5569
  },
  {
    "codigo_ibge": 1702000,
    "nome": "Araguaçu",
    "uf": "TO",
    "estado": "Tocantins",
    "latitude": -12.9289,
    "longitude": -49.8231
  },
  {
    "codigo_ibge": 5101001,
    "nome": "Araguaiana",
    "uf": "MT",
    "estado": "Mato Grosso",
    "latitude": -15.7291,
    "longitude": -51.8341
  },
  {
    "codigo_ibge": 1702109,
    "nome": "Araguaína",
    "uf": "TO",
    "estado": "Tocantins",
    "latitude": -7.19238,
    "longitude": -48.2044
  },
  {
    "codigo_ibge": 5101209,
    "nome": "Araguainha",
    "uf": "MT",
    "estado": "Mato Grosso",
    "latitude": -16.857,
    "longitude": -53.0318
  },
  {
    "codigo_ibge": 1702158,
    "nome": "Araguanã",
    "uf": "TO",
    "estado": "Tocantins",
    "latitude": -6.58225,
    "longitude": -48.6395
  },
  {
    "codigo_ibge": 2100873,
    "nome": "Araguanã",
    "uf": "MA",
    "estado": "Maranhão",
    "latitude": -2.94644,
    "longitude": -45.6589
  },
  {
    "codigo_ibge": 5202155,
    "nome": "Araguapaz",
    "uf": "GO",
    "estado": "Goiás",
    "latitude": -15.0909,
    "longitude": -50.6315
  },
  {
    "codigo_ibge": 3103504,
    "nome": "Araguari",
    "uf": "MG",
    "estado": "Minas Gerais",
    "latitude": -18.6456,
    "longitude": -48.1934
  },
  {
    "codigo_ibge": 1702208,
    "nome": "Araguatins",
    "uf": "TO",
    "estado": "Tocantins",
    "latitude": -5.64659,
    "longitude": -48.1232
  },
  {
    "codigo_ibge": 2100907,
    "nome": "Araioses",
    "uf": "MA",
    "estado": "Maranhão",
    "latitude": -2.89091,
    "longitude": -41.905
  },
  {
    "codigo_ibge": 5001243,
    "nome": "Aral Moreira",
    "uf": "MS",
    "estado": "Mato Grosso do Sul",
    "latitude": -22.9385,
    "longitude": -55.6334
  },
  {
    "codigo_ibge": 2902203,
    "nome": "Aramari",
    "uf": "BA",
    "estado": "Bahia",
    "latitude": -12.0884,
    "longitude": -38.4969
  },
  {
    "codigo_ibge": 4300851,
    "nome": "Arambaré",
    "uf": "RS",
    "estado": "Rio Grande do Sul",
    "latitude": -30.9092,
    "longitude": -51.5046
  },
  {
    "codigo_ibge": 2100956,
    "nome": "Arame",
    "uf": "MA",
    "estado": "Maranhão",
    "latitude": -4.88347,
    "longitude": -46.0032
  },
  {
    "codigo_ibge": 3503000,
    "nome": "Aramina",
    "uf": "SP",
    "estado": "São Paulo",
    "latitude": -20.0882,
    "longitude": -47.7873
  },
  {
    "codigo_ibge": 3503109,
    "nome": "Arandu",
    "uf": "SP",
    "estado": "São Paulo",
    "latitude": -23.1386,
    "longitude": -49.0487
  },
  {
    "codigo_ibge": 3103603,
    "nome": "Arantina",
    "uf": "MG",
    "estado": "Minas Gerais",
    "latitude": -21.9102,
    "longitude": -44.2555
  },
  {
    "codigo_ibge": 3503158,
    "nome": "Arapeí",
    "uf": "SP",
    "estado": "São Paulo",
    "latitude": -22.6717,
    "longitude": -44.4441
  },
  {
    "codigo_ibge": 2700300,
    "nome": "Arapiraca",
    "uf": "AL",
    "estado": "Alagoas",
    "latitude": -9.75487,
    "longitude": -36.6615
  },
  {
    "codigo_ibge": 1702307,
    "nome": "Arapoema",
    "uf": "TO",
    "estado": "Tocantins",
    "latitude": -7.65463,
    "longitude": -49.0637
  },
  {
    "codigo_ibge": 3103702,
    "nome": "Araponga",
    "uf": "MG",
    "estado": "Minas Gerais",
    "latitude": -20.6686,
    "longitude": -42.5178
  },
  {
    "codigo_ibge": 4101507,
    "nome": "Arapongas",
    "uf": "PR",
    "estado": "Paraná",
    "latitude": -23.4153,
    "longitude": -51.4259
  },
  {
    "codigo_ibge": 3103751,
    "nome": "Araporã",
    "uf": "MG",
    "estado": "Minas Gerais",
    "latitude": -18.4357,
    "longitude": -49.1847
  },
  {
    "codigo_ibge": 4101606,
    "nome": "Arapoti",
    "uf": "PR",
    "estado": "Paraná",
    "latitude": -24.1548,
    "longitude": -49.8285
  },
  {
    "codigo_ibge": 4101655,
    "nome": "Arapuã",
    "uf": "PR",
    "estado": "Paraná",
    "latitude": -24.3132,
    "longitude": -51.7856
  },
  {
    "codigo_ibge": 3103801,
    "nome": "Arapuá",
    "uf": "MG",
    "estado": "Minas Gerais",
    "latitude": -19.0268,
    "longitude": -46.1484
  },
  {
    "codigo_ibge": 5101258,
    "nome": "Araputanga",
    "uf": "MT",
    "estado": "Mato Grosso",
    "latitude": -15.4641,
    "longitude": -58.3425
  },
  {
    "codigo_ibge": 4201307,
    "nome": "Araquari",
    "uf": "SC",
    "estado": "Santa Catarina",
    "latitude": -26.3754,
    "longitude": -48.7188
  },
  {
    "codigo_ibge": 2500908,
    "nome": "Arara",
    "uf": "PB",
    "estado": "Paraíba",
    "latitude": -6.82813,
    "longitude": -35.7552
  },
  {
    "codigo_ibge": 4201406,
    "nome": "Araranguá",
    "uf": "SC",
    "estado": "Santa Catarina",
    "latitude": -28.9356,
    "longitude": -49.4918
  },
  {
    "codigo_ibge": 3503208,
    "nome": "Araraquara",
    "uf": "SP",
    "estado": "São Paulo",
    "latitude": -21.7845,
    "longitude": -48.178
  },
  {
    "codigo_ibge": 3503307,
    "nome": "Araras",
    "uf": "SP",
    "estado": "São Paulo",
    "latitude": -22.3572,
    "longitude": -47.3842
  },
  {
    "codigo_ibge": 2301257,
    "nome": "Ararendá",
    "uf": "CE",
    "estado": "Ceará",
    "latitude": -4.74567,
    "longitude": -40.831
  },
  {
    "codigo_ibge": 2101004,
    "nome": "Arari",
    "uf": "MA",
    "estado": "Maranhão",
    "latitude": -3.45214,
    "longitude": -44.7665
  },
  {
    "codigo_ibge": 4300877,
    "nome": "Araricá",
    "uf": "RS",
    "estado": "Rio Grande do Sul",
    "latitude": -29.6168,
    "longitude": -50.9291
  },
  {
    "codigo_ibge": 2301307,
    "nome": "Araripe",
    "uf": "CE",
    "estado": "Ceará",
    "latitude": -7.21319,
    "longitude": -40.1359
  },
  {
    "codigo_ibge": 2601102,
    "nome": "Araripina",
    "uf": "PE",
    "estado": "Pernambuco",
    "latitude": -7.57073,
    "longitude": -40.494
  },
  {
    "codigo_ibge": 3300209,
    "nome": "Araruama",
    "uf": "RJ",
    "estado": "Rio de Janeiro",
    "latitude": -22.8697,
    "longitude": -42.3326
  },
  {
    "codigo_ibge": 4101705,
    "nome": "Araruna",
    "uf": "PR",
    "estado": "Paraná",
    "latitude": -23.9315,
    "longitude": -52.5021
  },
  {
    "codigo_ibge": 2501005,
    "nome": "Araruna",
    "uf": "PB",
    "estado": "Paraíba",
    "latitude": -6.54848,
    "longitude": -35.7498
  },
  {
    "codigo_ibge": 2902252,
    "nome": "Arataca",
    "uf": "BA",
    "estado": "Bahia",
    "latitude": -15.2651,
    "longitude": -39.419
  },
  {
    "codigo_ibge": 4300901,
    "nome": "Aratiba",
    "uf": "RS",
    "estado": "Rio Grande do Sul",
    "latitude": -27.3978,
    "longitude": -52.2975
  },
  {
    "codigo_ibge": 2301406,
    "nome": "Aratuba",
    "uf": "CE",
    "estado": "Ceará",
    "latitude": -4.41229,
    "longitude": -39.0471
  },
  {
    "codigo_ibge": 2902302,
    "nome": "Aratuípe",
    "uf": "BA",
    "estado": "Bahia",
    "latitude": -13.0716,
    "longitude": -39.0038
  },
  {
    "codigo_ibge": 2800407,
    "nome": "Arauá",
    "uf": "SE",
    "estado": "Sergipe",
    "latitude": -11.2614,
    "longitude": -37.6201
  },
  {
    "codigo_ibge": 4101804,
    "nome": "Araucária",
    "uf": "PR",
    "estado": "Paraná",
    "latitude": -25.5859,
    "longitude": -49.4047
  },
  {
    "codigo_ibge": 3103900,
    "nome": "Araújos",
    "uf": "MG",
    "estado": "Minas Gerais",
    "latitude": -19.9405,
    "longitude": -45.1671
  },
  {
    "codigo_ibge": 3104007,
    "nome": "Araxá",
    "uf": "MG",
    "estado": "Minas Gerais",
    "latitude": -19.5902,
    "longitude": -46.9438
  },
  {
    "codigo_ibge": 3104106,
    "nome": "Arceburgo",
    "uf": "MG",
    "estado": "Minas Gerais",
    "latitude": -21.359,
    "longitude": -46.9401
  },
  {
    "codigo_ibge": 3503356,
    "nome": "Arco-Íris",
    "uf": "SP",
    "estado": "São Paulo",
    "latitude": -21.7728,
    "longitude": -50.466
  },
  {
    "codigo_ibge": 3104205,
    "nome": "Arcos",
    "uf": "MG",
    "estado": "Minas Gerais",
    "latitude": -20.2863,
    "longitude": -45.5373
  },
  {
    "codigo_ibge": 2601201,
    "nome": "Arcoverde",
    "uf": "PE",
    "estado": "Pernambuco",
    "latitude": -8.41519,
    "longitude": -37.0577
  },
  {
    "codigo_ibge": 3104304,
    "nome": "Areado",
    "uf": "MG",
    "estado": "Minas Gerais",
    "latitude": -21.3572,
    "longitude": -46.1421
  },
  {
    "codigo_ibge": 3300225,
    "nome": "Areal",
    "uf": "RJ",
    "estado": "Rio de Janeiro",
    "latitude": -22.2283,
    "longitude": -43.1118
  },
  {
    "codigo_ibge": 3503406,
    "nome": "Arealva",
    "uf": "SP",
    "estado": "São Paulo",
    "latitude": -22.031,
    "longitude": -48.9135
  },
  {
    "codigo_ibge": 2501104,
    "nome": "Areia",
    "uf": "PB",
    "estado": "Paraíba",
    "latitude": -6.96396,
    "longitude": -35.6977
  },
  {
    "codigo_ibge": 2401107,
    "nome": "Areia Branca",
    "uf": "RN",
    "estado": "Rio Grande do Norte",
    "latitude": -4.95254,
    "longitude": -37.1252
  },
  {
    "codigo_ibge": 2800506,
    "nome": "Areia Branca",
    "uf": "SE",
    "estado": "Sergipe",
    "latitude": -10.758,
    "longitude": -37.3251
  },
  {
    "codigo_ibge": 2501153,
    "nome": "Areia de Baraúnas",
    "uf": "PB",
    "estado": "Paraíba",
    "latitude": -7.11702,
    "longitude": -36.9404
  },
  {
    "codigo_ibge": 2501203,
    "nome": "Areial",
    "uf": "PB",
    "estado": "Paraíba",
    "latitude": -7.04789,
    "longitude": -35.9313
  },
  {
    "codigo_ibge": 3503505,
    "nome": "Areias",
    "uf": "SP",
    "estado": "São Paulo",
    "latitude": -22.5786,
    "longitude": -44.6992
  },
  {
    "codigo_ibge": 3503604,
    "nome": "Areiópolis",
    "uf": "SP",
    "estado": "São Paulo",
    "latitude": -22.6672,
    "longitude": -48.6681
  },
  {
    "codigo_ibge": 5101308,
    "nome": "Arenápolis",
    "uf": "MT",
    "estado": "Mato Grosso",
    "latitude": -14.4472,
    "longitude": -56.8437
  },
  {
    "codigo_ibge": 5202353,
    "nome": "Arenópolis",
    "uf": "GO",
    "estado": "Goiás",
    "latitude": -16.3837,
    "longitude": -51.5563
  },
  {
    "codigo_ibge": 2401206,
    "nome": "Arês",
    "uf": "RN",
    "estado": "Rio Grande do Norte",
    "latitude": -6.18831,
    "longitude": -35.1608
  },
  {
    "codigo_ibge": 3104403,
    "nome": "Argirita",
    "uf": "MG",
    "estado": "Minas Gerais",
    "latitude": -21.6083,
    "longitude": -42.8292
  },
  {
    "codigo_ibge": 3104452,
    "nome": "Aricanduva",
    "uf": "MG",
    "estado": "Minas Gerais",
    "latitude": -17.8666,
    "longitude": -42.5533
  },
  {
    "codigo_ibge": 3104502,
    "nome": "Arinos",
    "uf": "MG",
    "estado": "Minas Gerais",
    "latitude": -15.9187,
    "longitude": -46.1043
  },
  {
    "codigo_ibge": 5101407,
    "nome": "Aripuanã",
    "uf": "MT",
    "estado": "Mato Grosso",
    "latitude": -10.1723,
    "longitude": -59.4568
  },
  {
    "codigo_ibge": 1100023,
    "nome": "Ariquemes",
    "uf": "RO",
    "estado": "Rondônia",
    "latitude": -9.90571,
    "longitude": -63.0325
  },
  {
    "codigo_ibge": 3503703,
    "nome": "Ariranha",
    "uf": "SP",
    "estado": "São Paulo",
    "latitude": -21.1872,
    "longitude": -48.7904
  },
  {
    "codigo_ibge": 4101853,
    "nome": "Ariranha do Ivaí",
    "uf": "PR",
    "estado": "Paraná",
    "latitude": -24.3857,
    "longitude": -51.5839
  },
  {
    "codigo_ibge": 3300233,
    "nome": "Armação dos Búzios",
    "uf": "RJ",
    "estado": "Rio de Janeiro",
    "latitude": -22.7528,
    "longitude": -41.8846
  },
  {
    "codigo_ibge": 4201505,
    "nome": "Armazém",
    "uf": "SC",
    "estado": "Santa Catarina",
    "latitude": -28.2448,
    "longitude": -49.0215
  },
  {
    "codigo_ibge": 2301505,
    "nome": "Arneiroz",
    "uf": "CE",
    "estado": "Ceará",
    "latitude": -6.3165,
    "longitude": -40.1653
  },
  {
    "codigo_ibge": 2200905,
    "nome": "Aroazes",
    "uf": "PI",
    "estado": "Piauí",
    "latitude": -6.11022,
    "longitude": -41.7822
  },
  {
    "codigo_ibge": 2501302,
    "nome": "Aroeiras",
    "uf": "PB",
    "estado": "Paraíba",
    "latitude": -7.54473,
    "longitude": -35.7066
  },
  {
    "codigo_ibge": 2200954,
    "nome": "Aroeiras do Itaim",
    "uf": "PI",
    "estado": "Piauí",
    "latitude": -7.24502,
    "longitude": -41.5325
  },
  {
    "codigo_ibge": 2201002,
    "nome": "Arraial",
    "uf": "PI",
    "estado": "Piauí",
    "latitude": -6.65075,
    "longitude": -42.5418
  },
  {
    "codigo_ibge": 3300258,
    "nome": "Arraial do Cabo",
    "uf": "RJ",
    "estado": "Rio de Janeiro",
    "latitude": -22.9774,
    "longitude": -42.0267
  },
  {
    "codigo_ibge": 1702406,
    "nome": "Arraias",
    "uf": "TO",
    "estado": "Tocantins",
    "latitude": -12.9287,
    "longitude": -46.9359
  },
  {
    "codigo_ibge": 4301008,
    "nome": "Arroio do Meio",
    "uf": "RS",
    "estado": "Rio Grande do Sul",
    "latitude": -29.4014,
    "longitude": -51.9557
  },
  {
    "codigo_ibge": 4301073,
    "nome": "Arroio do Padre",
    "uf": "RS",
    "estado": "Rio Grande do Sul",
    "latitude": -31.4389,
    "longitude": -52.4246
  },
  {
    "codigo_ibge": 4301057,
    "nome": "Arroio do Sal",
    "uf": "RS",
    "estado": "Rio Grande do Sul",
    "latitude": -29.5439,
    "longitude": -49.8895
  },
  {
    "codigo_ibge": 4301206,
    "nome": "Arroio do Tigre",
    "uf": "RS",
    "estado": "Rio Grande do Sul",
    "latitude": -29.3348,
    "longitude": -53.0966
  },
  {
    "codigo_ibge": 4301107,
    "nome": "Arroio dos Ratos",
    "uf": "RS",
    "estado": "Rio Grande do Sul",
    "latitude": -30.0875,
    "longitude": -51.7275
  },
  {
    "codigo_ibge": 4301305,
    "nome": "Arroio Grande",
    "uf": "RS",
    "estado": "Rio Grande do Sul",
    "latitude": -32.2327,
    "longitude": -53.0862
  },
  {
    "codigo_ibge": 4201604,
    "nome": "Arroio Trinta",
    "uf": "SC",
    "estado": "Santa Catarina",
    "latitude": -26.9257,
    "longitude": -51.3407
  },
  {
    "codigo_ibge": 3503802,
    "nome": "Artur Nogueira",
    "uf": "SP",
    "estado": "São Paulo",
    "latitude": -22.5727,
    "longitude": -47.1727
  },
  {
    "codigo_ibge": 5202502,
    "nome": "Aruanã",
    "uf": "GO",
    "estado": "Goiás",
    "latitude": -14.9166,
    "longitude": -51.075
  },
  {
    "codigo_ibge": 3503901,
    "nome": "Arujá",
    "uf": "SP",
    "estado": "São Paulo",
    "latitude": -23.3965,
    "longitude": -46.32
  },
  {
    "codigo_ibge": 4201653,
    "nome": "Arvoredo",
    "uf": "SC",
    "estado": "Santa Catarina",
    "latitude": -27.0748,
    "longitude": -52.4543
  },
  {
    "codigo_ibge": 4301404,
    "nome": "Arvorezinha",
    "uf": "RS",
    "estado": "Rio Grande do Sul",
    "latitude": -28.8737,
    "longitude": -52.1781
  },
  {
    "codigo_ibge": 4201703,
    "nome": "Ascurra",
    "uf": "SC",
    "estado": "Santa Catarina",
    "latitude": -26.9548,
    "longitude": -49.3783
  },
  {
    "codigo_ibge": 3503950,
    "nome": "Aspásia",
    "uf": "SP",
    "estado": "São Paulo",
    "latitude": -20.16,
    "longitude": -50.728
  },
  {
    "codigo_ibge": 4101903,
    "nome": "Assaí",
    "uf": "PR",
    "estado": "Paraná",
    "latitude": -23.3697,
    "longitude": -50.8459
  },
  {
    "codigo_ibge": 2301604,
    "nome": "Assaré",
    "uf": "CE",
    "estado": "Ceará",
    "latitude": -6.8669,
    "longitude": -39.8689
  },
  {
    "codigo_ibge": 3504008,
    "nome": "Assis",
    "uf": "SP",
    "estado": "São Paulo",
    "latitude": -22.66,
    "longitude": -50.4183
  },
  {
    "codigo_ibge": 1200054,
    "nome": "Assis Brasil",
    "uf": "AC",
    "estado": "Acre",
    "latitude": -10.9298,
    "longitude": -69.5738
  },
  {
    "codigo_ibge": 4102000,
    "nome": "Assis Chateaubriand",
    "uf": "PR",
    "estado": "Paraná",
    "latitude": -24.4168,
    "longitude": -53.5213
  },
  {
    "codigo_ibge": 2501351,
    "nome": "Assunção",
    "uf": "PB",
    "estado": "Paraíba",
    "latitude": -7.07231,
    "longitude": -36.725
  },
  {
    "codigo_ibge": 2201051,
    "nome": "Assunção do Piauí",
    "uf": "PI",
    "estado": "Piauí",
    "latitude": -5.865,
    "longitude": -41.0389
  },
  {
    "codigo_ibge": 3104601,
    "nome": "Astolfo Dutra",
    "uf": "MG",
    "estado": "Minas Gerais",
    "latitude": -21.3184,
    "longitude": -42.8572
  },
  {
    "codigo_ibge": 4102109,
    "nome": "Astorga",
    "uf": "PR",
    "estado": "Paraná",
    "latitude": -23.2318,
    "longitude": -51.6668
  },
  {
    "codigo_ibge": 4102208,
    "nome": "Atalaia",
    "uf": "PR",
    "estado": "Paraná",
    "latitude": -23.1517,
    "longitude": -52.0551
  },
  {
    "codigo_ibge": 2700409,
    "nome": "Atalaia",
    "uf": "AL",
    "estado": "Alagoas",
    "latitude": -9.5119,
    "longitude": -36.0086
  },
  {
    "codigo_ibge": 1300201,
    "nome": "Atalaia do Norte",
    "uf": "AM",
    "estado": "Amazonas",
    "latitude": -4.37055,
    "longitude": -70.1967
  },
  {
    "codigo_ibge": 4201802,
    "nome": "Atalanta",
    "uf": "SC",
    "estado": "Santa Catarina",
    "latitude": -27.4219,
    "longitude": -49.7789
  },
  {
    "codigo_ibge": 3104700,
    "nome": "Ataléia",
    "uf": "MG",
    "estado": "Minas Gerais",
    "latitude": -18.0438,
    "longitude": -41.1149
  },
  {
    "codigo_ibge": 3504107,
    "nome": "Atibaia",
    "uf": "SP",
    "estado": "São Paulo",
    "latitude": -23.1171,
    "longitude": -46.5563
  },
  {
    "codigo_ibge": 3200706,
    "nome": "Atilio Vivacqua",
    "uf": "ES",
    "estado": "Espírito Santo",
    "latitude": -20.913,
    "longitude": -41.1986
  },
  {
    "codigo_ibge": 1702554,
    "nome": "Augustinópolis",
    "uf": "TO",
    "estado": "Tocantins",
    "latitude": -5.46863,
    "longitude": -47.8863
  },
  {
    "codigo_ibge": 1500909,
    "nome": "Augusto Corrêa",
    "uf": "PA",
    "estado": "Pará",
    "latitude": -1.05109,
    "longitude": -46.6147
  },
  {
    "codigo_ibge": 3104809,
    "nome": "Augusto de Lima",
    "uf": "MG",
    "estado": "Minas Gerais",
    "latitude": -18.0997,
    "longitude": -44.2655
  },
  {
    "codigo_ibge": 4301503,
    "nome": "Augusto Pestana",
    "uf": "RS",
    "estado": "Rio Grande do Sul",
    "latitude": -28.5172,
    "longitude": -53.9883
  },
  {
    "codigo_ibge": 2401305,
    "nome": "Augusto Severo (Campo Grande)",
    "uf": "RN",
    "estado": "Rio Grande do Norte",
    "latitude": -5.86206,
    "longitude": -37.3135
  },
  {
    "codigo_ibge": 4301552,
    "nome": "Áurea",
    "uf": "RS",
    "estado": "Rio Grande do Sul",
    "latitude": -27.6936,
    "longitude": -52.0505
  },
  {
    "codigo_ibge": 2902401,
    "nome": "Aurelino Leal",
    "uf": "BA",
    "estado": "Bahia",
    "latitude": -14.321,
    "longitude": -39.329
  },
  {
    "codigo_ibge": 3504206,
    "nome": "Auriflama",
    "uf": "SP",
    "estado": "São Paulo",
    "latitude": -20.6836,
    "longitude": -50.5572
  },
  {
    "codigo_ibge": 5202601,
    "nome": "Aurilândia",
    "uf": "GO",
    "estado": "Goiás",
    "latitude": -16.6773,
    "longitude": -50.4641
  },
  {
    "codigo_ibge": 2301703,
    "nome": "Aurora",
    "uf": "CE",
    "estado": "Ceará",
    "latitude": -6.93349,
    "longitude": -38.9742
  },
  {
    "codigo_ibge": 4201901,
    "nome": "Aurora",
    "uf": "SC",
    "estado": "Santa Catarina",
    "latitude": -27.3098,
    "longitude": -49.6295
  },
  {
    "codigo_ibge": 1500958,
    "nome": "Aurora do Pará",
    "uf": "PA",
    "estado": "Pará",
    "latitude": -2.14898,
    "longitude": -47.5677
  },
  {
    "codigo_ibge": 1702703,
    "nome": "Aurora do Tocantins",
    "uf": "TO",
    "estado": "Tocantins",
    "latitude": -12.7105,
    "longitude": -46.4076
  },
  {
    "codigo_ibge": 1300300,
    "nome": "Autazes",
    "uf": "AM",
    "estado": "Amazonas",
    "latitude": -3.58574,
    "longitude": -59.1256
  },
  {
    "codigo_ibge": 3504305,
    "nome": "Avaí",
    "uf": "SP",
    "estado": "São Paulo",
    "latitude": -22.1514,
    "longitude": -49.3356
  },
  {
    "codigo_ibge": 3504404,
    "nome": "Avanhandava",
    "uf": "SP",
    "estado": "São Paulo",
    "latitude": -21.4584,
    "longitude": -49.9509
  },
  {
    "codigo_ibge": 3504503,
    "nome": "Avaré",
    "uf": "SP",
    "estado": "São Paulo",
    "latitude": -23.1067,
    "longitude": -48.9251
  },
  {
    "codigo_ibge": 1501006,
    "nome": "Aveiro",
    "uf": "PA",
    "estado": "Pará",
    "latitude": -3.60841,
    "longitude": -55.3199
  },
  {
    "codigo_ibge": 2201101,
    "nome": "Avelino Lopes",
    "uf": "PI",
    "estado": "Piauí",
    "latitude": -10.1345,
    "longitude": -43.9563
  },
  {
    "codigo_ibge": 5202809,
    "nome": "Avelinópolis",
    "uf": "GO",
    "estado": "Goiás",
    "latitude": -16.4672,
    "longitude": -49.7579
  },
  {
    "codigo_ibge": 2101103,
    "nome": "Axixá",
    "uf": "MA",
    "estado": "Maranhão",
    "latitude": -2.83939,
    "longitude": -44.062
  },
  {
    "codigo_ibge": 1702901,
    "nome": "Axixá do Tocantins",
    "uf": "TO",
    "estado": "Tocantins",
    "latitude": -5.61275,
    "longitude": -47.7701
  },
  {
    "codigo_ibge": 1703008,
    "nome": "Babaçulândia",
    "uf": "TO",
    "estado": "Tocantins",
    "latitude": -7.20923,
    "longitude": -47.7613
  },
  {
    "codigo_ibge": 2101202,
    "nome": "Bacabal",
    "uf": "MA",
    "estado": "Maranhão",
    "latitude": -4.22447,
    "longitude": -44.7832
  },
  {
    "codigo_ibge": 2101251,
    "nome": "Bacabeira",
    "uf": "MA",
    "estado": "Maranhão",
    "latitude": -2.96452,
    "longitude": -44.3164
  },
  {
    "codigo_ibge": 2101301,
    "nome": "Bacuri",
    "uf": "MA",
    "estado": "Maranhão",
    "latitude": -1.6965,
    "longitude": -45.1328
  },
  {
    "codigo_ibge": 2101350,
    "nome": "Bacurituba",
    "uf": "MA",
    "estado": "Maranhão",
    "latitude": -2.71,
    "longitude": -44.7329
  },
  {
    "codigo_ibge": 3504602,
    "nome": "Bady Bassitt",
    "uf": "SP",
    "estado": "São Paulo",
    "latitude": -20.9197,
    "longitude": -49.4385
  },
  {
    "codigo_ibge": 3104908,
    "nome": "Baependi",
    "uf": "MG",
    "estado": "Minas Gerais",
    "latitude": -21.957,
    "longitude": -44.8874
  },
  {
    "codigo_ibge": 4301602,
    "nome": "Bagé",
    "uf": "RS",
    "estado": "Rio Grande do Sul",
    "latitude": -31.3297,
    "longitude": -54.0999
  },
  {
    "codigo_ibge": 1501105,
    "nome": "Bagre",
    "uf": "PA",
    "estado": "Pará",
    "latitude": -1.90057,
    "longitude": -50.1987
  },
  {
    "codigo_ibge": 2501401,
    "nome": "Baía da Traição",
    "uf": "PB",
    "estado": "Paraíba",
    "latitude": -6.69209,
    "longitude": -34.9381
  },
  {
    "codigo_ibge": 2401404,
    "nome": "Baía Formosa",
    "uf": "RN",
    "estado": "Rio Grande do Norte",
    "latitude": -6.37161,
    "longitude": -35.0033
  },
  {
    "codigo_ibge": 2902500,
    "nome": "Baianópolis",
    "uf": "BA",
    "estado": "Bahia",
    "latitude": -12.3016,
    "longitude": -44.5388
  },
  {
    "codigo_ibge": 1501204,
    "nome": "Baião",
    "uf": "PA",
    "estado": "Pará",
    "latitude": -2.79021,
    "longitude": -49.6694
  },
  {
    "codigo_ibge": 2902609,
    "nome": "Baixa Grande",
    "uf": "BA",
    "estado": "Bahia",
    "latitude": -11.9519,
    "longitude": -40.169
  },
  {
    "codigo_ibge": 2201150,
    "nome": "Baixa Grande do Ribeiro",
    "uf": "PI",
    "estado": "Piauí",
    "latitude": -7.84903,
    "longitude": -45.219
  },
  {
    "codigo_ibge": 2301802,
    "nome": "Baixio",
    "uf": "CE",
    "estado": "Ceará",
    "latitude": -6.71945,
    "longitude": -38.7134
  },
  {
    "codigo_ibge": 3200805,
    "nome": "Baixo Guandu",
    "uf": "ES",
    "estado": "Espírito Santo",
    "latitude": -19.5213,
    "longitude": -41.0109
  },
  {
    "codigo_ibge": 3504701,
    "nome": "Balbinos",
    "uf": "SP",
    "estado": "São Paulo",
    "latitude": -21.8963,
    "longitude": -49.3619
  },
  {
    "codigo_ibge": 3105004,
    "nome": "Baldim",
    "uf": "MG",
    "estado": "Minas Gerais",
    "latitude": -19.2832,
    "longitude": -43.9613
  },
  {
    "codigo_ibge": 5203104,
    "nome": "Baliza",
    "uf": "GO",
    "estado": "Goiás",
    "latitude": -16.1966,
    "longitude": -52.5393
  },
  {
    "codigo_ibge": 4201950,
    "nome": "Balneário Arroio do Silva",
    "uf": "SC",
    "estado": "Santa Catarina",
    "latitude": -28.9806,
    "longitude": -49.4237
  },
  {
    "codigo_ibge": 4202057,
    "nome": "Balneário Barra do Sul",
    "uf": "SC",
    "estado": "Santa Catarina",
    "latitude": -26.4597,
    "longitude": -48.6123
  },
  {
    "codigo_ibge": 4202008,
    "nome": "Balneário Camboriú",
    "uf": "SC",
    "estado": "Santa Catarina",
    "latitude": -26.9926,
    "longitude": -48.6352
  },
  {
    "codigo_ibge": 4202073,
    "nome": "Balneário Gaivota",
    "uf": "SC",
    "estado": "Santa Catarina",
    "latitude": -29.1527,
    "longitude": -49.5841
  },
  {
    "codigo_ibge": 4212809,
    "nome": "Balneário Piçarras",
    "uf": "SC",
    "estado": "Santa Catarina",
    "latitude": -26.7639,
    "longitude": -48.6717
  },
  {
    "codigo_ibge": 4301636,
    "nome": "Balneário Pinhal",
    "uf": "RS",
    "estado": "Rio Grande do Sul",
    "latitude": -30.2419,
    "longitude": -50.2337
  },
  {
    "codigo_ibge": 4220000,
    "nome": "Balneário Rincão",
    "uf": "SC",
    "estado": "Santa Catarina",
    "latitude": -28.8314,
    "longitude": -49.2352
  },
  {
    "codigo_ibge": 4102307,
    "nome": "Balsa Nova",
    "uf": "PR",
    "estado": "Paraná",
    "latitude": -25.5804,
    "longitude": -49.6291
  },
  {
    "codigo_ibge": 3504800,
    "nome": "Bálsamo",
    "uf": "SP",
    "estado": "São Paulo",
    "latitude": -20.7348,
    "longitude": -49.5865
  },
  {
    "codigo_ibge": 2101400,
    "nome": "Balsas",
    "uf": "MA",
    "estado": "Maranhão",
    "latitude": -7.53214,
    "longitude": -46.0372
  },
  {
    "codigo_ibge": 3105103,
    "nome": "Bambuí",
    "uf": "MG",
    "estado": "Minas Gerais",
    "latitude": -20.0166,
    "longitude": -45.9754
  },
  {
    "codigo_ibge": 2301851,
    "nome": "Banabuiú",
    "uf": "CE",
    "estado": "Ceará",
    "latitude": -5.30454,
    "longitude": -38.9132
  },
  {
    "codigo_ibge": 3504909,
    "nome": "Bananal",
    "uf": "SP",
    "estado": "São Paulo",
    "latitude": -22.6819,
    "longitude": -44.3281
  },
  {
    "codigo_ibge": 2501500,
    "nome": "Bananeiras",
    "uf": "PB",
    "estado": "Paraíba",
    "latitude": -6.74775,
    "longitude": -35.6246
  },
  {
    "codigo_ibge": 3105202,
    "nome": "Bandeira",
    "uf": "MG",
    "estado": "Minas Gerais",
    "latitude": -15.8783,
    "longitude": -40.5622
  },
  {
    "codigo_ibge": 3105301,
    "nome": "Bandeira do Sul",
    "uf": "MG",
    "estado": "Minas Gerais",
    "latitude": -21.7308,
    "longitude": -46.3833
  },
  {
    "codigo_ibge": 4202081,
    "nome": "Bandeirante",
    "uf": "SC",
    "estado": "Santa Catarina",
    "latitude": -26.7705,
    "longitude": -53.6413
  },
  {
    "codigo_ibge": 5001508,
    "nome": "Bandeirantes",
    "uf": "MS",
    "estado": "Mato Grosso do Sul",
    "latitude": -19.9275,
    "longitude": -54.3585
  },
  {
    "codigo_ibge": 4102406,
    "nome": "Bandeirantes",
    "uf": "PR",
    "estado": "Paraná",
    "latitude": -23.1078,
    "longitude": -50.3704
  },
  {
    "codigo_ibge": 1703057,
    "nome": "Bandeirantes do Tocantins",
    "uf": "TO",
    "estado": "Tocantins",
    "latitude": -7.75612,
    "longitude": -48.5836
  },
  {
    "codigo_ibge": 1501253,
    "nome": "Bannach",
    "uf": "PA",
    "estado": "Pará",
    "latitude": -7.34779,
    "longitude": -50.3959
  },
  {
    "codigo_ibge": 2902658,
    "nome": "Banzaê",
    "uf": "BA",
    "estado": "Bahia",
    "latitude": -10.5788,
    "longitude": -38.6212
  },
  {
    "codigo_ibge": 4301651,
    "nome": "Barão",
    "uf": "RS",
    "estado": "Rio Grande do Sul",
    "latitude": -29.3725,
    "longitude": -51.4949
  },
  {
    "codigo_ibge": 3505005,
    "nome": "Barão de Antonina",
    "uf": "SP",
    "estado": "São Paulo",
    "latitude": -23.6284,
    "longitude": -49.5634
  },
  {
    "codigo_ibge": 3105400,
    "nome": "Barão de Cocais",
    "uf": "MG",
    "estado": "Minas Gerais",
    "latitude": -19.9389,
    "longitude": -43.4755
  },
  {
    "codigo_ibge": 4301701,
    "nome": "Barão de Cotegipe",
    "uf": "RS",
    "estado": "Rio Grande do Sul",
    "latitude": -27.6208,
    "longitude": -52.3798
  },
  {
    "codigo_ibge": 2101509,
    "nome": "Barão de Grajaú",
    "uf": "MA",
    "estado": "Maranhão",
    "latitude": -6.74463,
    "longitude": -43.0261
  },
  {
    "codigo_ibge": 5101605,
    "nome": "Barão de Melgaço",
    "uf": "MT",
    "estado": "Mato Grosso",
    "latitude": -16.2067,
    "longitude": -55.9623
  },
  {
    "codigo_ibge": 3105509,
    "nome": "Barão de Monte Alto",
    "uf": "MG",
    "estado": "Minas Gerais",
    "latitude": -21.2444,
    "longitude": -42.2372
  },
  {
    "codigo_ibge": 4301750,
    "nome": "Barão do Triunfo",
    "uf": "RS",
    "estado": "Rio Grande do Sul",
    "latitude": -30.3891,
    "longitude": -51.7384
  },
  {
    "codigo_ibge": 2401453,
    "nome": "Baraúna",
    "uf": "RN",
    "estado": "Rio Grande do Norte",
    "latitude": -5.06977,
    "longitude": -37.6129
  },
  {
    "codigo_ibge": 2501534,
    "nome": "Baraúna",
    "uf": "PB",
    "estado": "Paraíba",
    "latitude": -6.63484,
    "longitude": -36.2601
  },
  {
    "codigo_ibge": 3105608,
    "nome": "Barbacena",
    "uf": "MG",
    "estado": "Minas Gerais",
    "latitude": -21.2214,
    "longitude": -43.7703
  },
  {
    "codigo_ibge": 2301901,
    "nome": "Barbalha",
    "uf": "CE",
    "estado": "Ceará",
    "latitude": -7.2982,
    "longitude": -39.3021
  },
  {
    "codigo_ibge": 3505104,
    "nome": "Barbosa",
    "uf": "SP",
    "estado": "São Paulo",
    "latitude": -21.2657,
    "longitude": -49.9518
  },
  {
    "codigo_ibge": 4102505,
    "nome": "Barbosa Ferraz",
    "uf": "PR",
    "estado": "Paraná",
    "latitude": -24.0334,
    "longitude": -52.004
  },
  {
    "codigo_ibge": 1501303,
    "nome": "Barcarena",
    "uf": "PA",
    "estado": "Pará",
    "latitude": -1.51187,
    "longitude": -48.6195
  },
  {
    "codigo_ibge": 2401503,
    "nome": "Barcelona",
    "uf": "RN",
    "estado": "Rio Grande do Norte",
    "latitude": -5.94284,
    "longitude": -35.9247
  },
  {
    "codigo_ibge": 1300409,
    "nome": "Barcelos",
    "uf": "AM",
    "estado": "Amazonas",
    "latitude": -0.983373,
    "longitude": -62.9311
  },
  {
    "codigo_ibge": 3505203,
    "nome": "Bariri",
    "uf": "SP",
    "estado": "São Paulo",
    "latitude": -22.073,
    "longitude": -48.7438
  },
  {
    "codigo_ibge": 2902708,
    "nome": "Barra",
    "uf": "BA",
    "estado": "Bahia",
    "latitude": -11.0859,
    "longitude": -43.1459
  },
  {
    "codigo_ibge": 4202099,
    "nome": "Barra Bonita",
    "uf": "SC",
    "estado": "Santa Catarina",
    "latitude": -26.654,
    "longitude": -53.44
  },
  {
    "codigo_ibge": 3505302,
    "nome": "Barra Bonita",
    "uf": "SP",
    "estado": "São Paulo",
    "latitude": -22.4909,
    "longitude": -48.5583
  },
  {
    "codigo_ibge": 2201176,
    "nome": "Barra D'Alcântara",
    "uf": "PI",
    "estado": "Piauí",
    "latitude": -6.51645,
    "longitude": -42.1146
  },
  {
    "codigo_ibge": 2902807,
    "nome": "Barra da Estiva",
    "uf": "BA",
    "estado": "Bahia",
    "latitude": -13.6237,
    "longitude": -41.3347
  },
  {
    "codigo_ibge": 2601300,
    "nome": "Barra de Guabiraba",
    "uf": "PE",
    "estado": "Pernambuco",
    "latitude": -8.42075,
    "longitude": -35.6585
  },
  {
    "codigo_ibge": 2501609,
    "nome": "Barra de Santa Rosa",
    "uf": "PB",
    "estado": "Paraíba",
    "latitude": -6.71816,
    "longitude": -36.0671
  },
  {
    "codigo_ibge": 2501575,
    "nome": "Barra de Santana",
    "uf": "PB",
    "estado": "Paraíba",
    "latitude": -7.51809,
    "longitude": -35.9913
  },
  {
    "codigo_ibge": 2700508,
    "nome": "Barra de Santo Antônio",
    "uf": "AL",
    "estado": "Alagoas",
    "latitude": -9.4023,
    "longitude": -35.5101
  },
  {
    "codigo_ibge": 3200904,
    "nome": "Barra de São Francisco",
    "uf": "ES",
    "estado": "Espírito Santo",
    "latitude": -18.7548,
    "longitude": -40.8965
  },
  {
    "codigo_ibge": 2501708,
    "nome": "Barra de São Miguel",
    "uf": "PB",
    "estado": "Paraíba",
    "latitude": -7.74603,
    "longitude": -36.3209
  },
  {
    "codigo_ibge": 2700607,
    "nome": "Barra de São Miguel",
    "uf": "AL",
    "estado": "Alagoas",
    "latitude": -9.83842,
    "longitude": -35.9057
  },
  {
    "codigo_ibge": 5101704,
    "nome": "Barra do Bugres",
    "uf": "MT",
    "estado": "Mato Grosso",
    "latitude": -15.0702,
    "longitude": -57.1878
  },
  {
    "codigo_ibge": 3505351,
    "nome": "Barra do Chapéu",
    "uf": "SP",
    "estado": "São Paulo",
    "latitude": -24.4722,
    "longitude": -49.0238
  },
  {
    "codigo_ibge": 2902906,
    "nome": "Barra do Choça",
    "uf": "BA",
    "estado": "Bahia",
    "latitude": -14.8654,
    "longitude": -40.5791
  },
  {
    "codigo_ibge": 2101608,
    "nome": "Barra do Corda",
    "uf": "MA",
    "estado": "Maranhão",
    "latitude": -5.49682,
    "longitude": -45.2485
  },
  {
    "codigo_ibge": 5101803,
    "nome": "Barra do Garças",
    "uf": "MT",
    "estado": "Mato Grosso",
    "latitude": -15.8804,
    "longitude": -52.264
  },
  {
    "codigo_ibge": 4301859,
    "nome": "Barra do Guarita",
    "uf": "RS",
    "estado": "Rio Grande do Sul",
    "latitude": -27.1927,
    "longitude": -53.7109
  },
  {
    "codigo_ibge": 4102703,
    "nome": "Barra do Jacaré",
    "uf": "PR",
    "estado": "Paraná",
    "latitude": -23.116,
    "longitude": -50.1842
  },
  {
    "codigo_ibge": 2903003,
    "nome": "Barra do Mendes",
    "uf": "BA",
    "estado": "Bahia",
    "latitude": -11.81,
    "longitude": -42.059
  },
  {
    "codigo_ibge": 1703073,
    "nome": "Barra do Ouro",
    "uf": "TO",
    "estado": "Tocantins",
    "latitude": -7.69593,
    "longitude": -47.6776
  },
  {
    "codigo_ibge": 3300308,
    "nome": "Barra do Piraí",
    "uf": "RJ",
    "estado": "Rio de Janeiro",
    "latitude": -22.4715,
    "longitude": -43.8269
  },
  {
    "codigo_ibge": 4301875,
    "nome": "Barra do Quaraí",
    "uf": "RS",
    "estado": "Rio Grande do Sul",
    "latitude": -30.2029,
    "longitude": -57.5497
  },
  {
    "codigo_ibge": 4301909,
    "nome": "Barra do Ribeiro",
    "uf": "RS",
    "estado": "Rio Grande do Sul",
    "latitude": -30.2939,
    "longitude": -51.3014
  },
  {
    "codigo_ibge": 4301925,
    "nome": "Barra do Rio Azul",
    "uf": "RS",
    "estado": "Rio Grande do Sul",
    "latitude": -27.4069,
    "longitude": -52.4084
  },
  {
    "codigo_ibge": 2903102,
    "nome": "Barra do Rocha",
    "uf": "BA",
    "estado": "Bahia",
    "latitude": -14.2,
    "longitude": -39.5991
  },
  {
    "codigo_ibge": 3505401,
    "nome": "Barra do Turvo",
    "uf": "SP",
    "estado": "São Paulo",
    "latitude": -24.759,
    "longitude": -48.5013
  },
  {
    "codigo_ibge": 2800605,
    "nome": "Barra dos Coqueiros",
    "uf": "SE",
    "estado": "Sergipe",
    "latitude": -10.8996,
    "longitude": -37.0323
  },
  {
    "codigo_ibge": 4301958,
    "nome": "Barra Funda",
    "uf": "RS",
    "estado": "Rio Grande do Sul",
    "latitude": -27.9205,
    "longitude": -53.0391
  },
  {
    "codigo_ibge": 3105707,
    "nome": "Barra Longa",
    "uf": "MG",
    "estado": "Minas Gerais",
    "latitude": -20.2869,
    "longitude": -43.0402
  },
  {
    "codigo_ibge": 3300407,
    "nome": "Barra Mansa",
    "uf": "RJ",
    "estado": "Rio de Janeiro",
    "latitude": -22.5481,
    "longitude": -44.1752
  },
  {
    "codigo_ibge": 4202107,
    "nome": "Barra Velha",
    "uf": "SC",
    "estado": "Santa Catarina",
    "latitude": -26.637,
    "longitude": -48.6933
  },
  {
    "codigo_ibge": 4301800,
    "nome": "Barracão",
    "uf": "RS",
    "estado": "Rio Grande do Sul",
    "latitude": -27.6739,
    "longitude": -51.4585
  },
  {
    "codigo_ibge": 4102604,
    "nome": "Barracão",
    "uf": "PR",
    "estado": "Paraná",
    "latitude": -26.2502,
    "longitude": -53.6324
  },
  {
    "codigo_ibge": 2201200,
    "nome": "Barras",
    "uf": "PI",
    "estado": "Piauí",
    "latitude": -4.24468,
    "longitude": -42.2922
  },
  {
    "codigo_ibge": 2301950,
    "nome": "Barreira",
    "uf": "CE",
    "estado": "Ceará",
    "latitude": -4.28921,
    "longitude": -38.6429
  },
  {
    "codigo_ibge": 2903201,
    "nome": "Barreiras",
    "uf": "BA",
    "estado": "Bahia",
    "latitude": -12.1439,
    "longitude": -44.9968
  },
  {
    "codigo_ibge": 2201309,
    "nome": "Barreiras do Piauí",
    "uf": "PI",
    "estado": "Piauí",
    "latitude": -9.9296,
    "longitude": -45.4702
  },
  {
    "codigo_ibge": 1300508,
    "nome": "Barreirinha",
    "uf": "AM",
    "estado": "Amazonas",
    "latitude": -2.79886,
    "longitude": -57.0679
  },
  {
    "codigo_ibge": 2101707,
    "nome": "Barreirinhas",
    "uf": "MA",
    "estado": "Maranhão",
    "latitude": -2.75863,
    "longitude": -42.8232
  },
  {
    "codigo_ibge": 2601409,
    "nome": "Barreiros",
    "uf": "PE",
    "estado": "Pernambuco",
    "latitude": -8.81605,
    "longitude": -35.1832
  },
  {
    "codigo_ibge": 3505500,
    "nome": "Barretos",
    "uf": "SP",
    "estado": "São Paulo",
    "latitude": -20.5531,
    "longitude": -48.5698
  },
  {
    "codigo_ibge": 3505609,
    "nome": "Barrinha",
    "uf": "SP",
    "estado": "São Paulo",
    "latitude": -21.1864,
    "longitude": -48.1636
  },
  {
    "codigo_ibge": 2302008,
    "nome": "Barro",
    "uf": "CE",
    "estado": "Ceará",
    "latitude": -7.17188,
    "longitude": -38.7741
  },
  {
    "codigo_ibge": 2903235,
    "nome": "Barro Alto",
    "uf": "BA",
    "estado": "Bahia",
    "latitude": -11.7605,
    "longitude": -41.9054
  },
  {
    "codigo_ibge": 5203203,
    "nome": "Barro Alto",
    "uf": "GO",
    "estado": "Goiás",
    "latitude": -14.9658,
    "longitude": -48.9086
  },
  {
    "codigo_ibge": 2201408,
    "nome": "Barro Duro",
    "uf": "PI",
    "estado": "Piauí",
    "latitude": -5.81673,
    "longitude": -42.5147
  },
  {
    "codigo_ibge": 2903300,
    "nome": "Barro Preto",
    "uf": "BA",
    "estado": "Bahia",
    "latitude": -14.7948,
    "longitude": -39.476
  },
  {
    "codigo_ibge": 2903276,
    "nome": "Barrocas",
    "uf": "BA",
    "estado": "Bahia",
    "latitude": -11.5272,
    "longitude": -39.0776
  },
  {
    "codigo_ibge": 1703107,
    "nome": "Barrolândia",
    "uf": "TO",
    "estado": "Tocantins",
    "latitude": -9.83404,
    "longitude": -48.7252
  },
  {
    "codigo_ibge": 2302057,
    "nome": "Barroquinha",
    "uf": "CE",
    "estado": "Ceará",
    "latitude": -3.02051,
    "longitude": -41.1358
  },
  {
    "codigo_ibge": 4302006,
    "nome": "Barros Cassal",
    "uf": "RS",
    "estado": "Rio Grande do Sul",
    "latitude": -29.0947,
    "longitude": -52.5836
  },
  {
    "codigo_ibge": 3105905,
    "nome": "Barroso",
    "uf": "MG",
    "estado": "Minas Gerais",
    "latitude": -21.1907,
    "longitude": -43.972
  },
  {
    "codigo_ibge": 3505708,
    "nome": "Barueri",
    "uf": "SP",
    "estado": "São Paulo",
    "latitude": -23.5057,
    "longitude": -46.879
  },
  {
    "codigo_ibge": 3505807,
    "nome": "Bastos",
    "uf": "SP",
    "estado": "São Paulo",
    "latitude": -21.921,
    "longitude": -50.7357
  },
  {
    "codigo_ibge": 5001904,
    "nome": "Bataguassu",
    "uf": "MS",
    "estado": "Mato Grosso do Sul",
    "latitude": -21.7159,
    "longitude": -52.4221
  },
  {
    "codigo_ibge": 2201507,
    "nome": "Batalha",
    "uf": "PI",
    "estado": "Piauí",
    "latitude": -4.0223,
    "longitude": -42.0787
  },
  {
    "codigo_ibge": 2700706,
    "nome": "Batalha",
    "uf": "AL",
    "estado": "Alagoas",
    "latitude": -9.6742,
    "longitude": -37.133
  },
  {
    "codigo_ibge": 3505906,
    "nome": "Batatais",
    "uf": "SP",
    "estado": "São Paulo",
    "latitude": -20.8929,
    "longitude": -47.5921
  },
  {
    "codigo_ibge": 5002001,
    "nome": "Batayporã",
    "uf": "MS",
    "estado": "Mato Grosso do Sul",
    "latitude": -22.2944,
    "longitude": -53.2705
  },
  {
    "codigo_ibge": 2302107,
    "nome": "Baturité",
    "uf": "CE",
    "estado": "Ceará",
    "latitude": -4.32598,
    "longitude": -38.8812
  },
  {
    "codigo_ibge": 3506003,
    "nome": "Bauru",
    "uf": "SP",
    "estado": "São Paulo",
    "latitude": -22.3246,
    "longitude": -49.0871
  },
  {
    "codigo_ibge": 2501807,
    "nome": "Bayeux",
    "uf": "PB",
    "estado": "Paraíba",
    "latitude": -7.1238,
    "longitude": -34.9293
  },
  {
    "codigo_ibge": 3506102,
    "nome": "Bebedouro",
    "uf": "SP",
    "estado": "São Paulo",
    "latitude": -20.9491,
    "longitude": -48.4791
  },
  {
    "codigo_ibge": 2302206,
    "nome": "Beberibe",
    "uf": "CE",
    "estado": "Ceará",
    "latitude": -4.17741,
    "longitude": -38.1271
  },
  {
    "codigo_ibge": 2302305,
    "nome": "Bela Cruz",
    "uf": "CE",
    "estado": "Ceará",
    "latitude": -3.04996,
    "longitude": -40.1671
  },
  {
    "codigo_ibge": 5002100,
    "nome": "Bela Vista",
    "uf": "MS",
    "estado": "Mato Grosso do Sul",
    "latitude": -22.1073,
    "longitude": -56.5263
  },
  {
    "codigo_ibge": 4102752,
    "nome": "Bela Vista da Caroba",
    "uf": "PR",
    "estado": "Paraná",
    "latitude": -25.8842,
    "longitude": -53.6725
  },
  {
    "codigo_ibge": 5203302,
    "nome": "Bela Vista de Goiás",
    "uf": "GO",
    "estado": "Goiás",
    "latitude": -16.9693,
    "longitude": -48.9513
  },
  {
    "codigo_ibge": 3106002,
    "nome": "Bela Vista de Minas",
    "uf": "MG",
    "estado": "Minas Gerais",
    "latitude": -19.8302,
    "longitude": -43.0922
  },
  {
    "codigo_ibge": 2101772,
    "nome": "Bela Vista do Maranhão",
    "uf": "MA",
    "estado": "Maranhão",
    "latitude": -3.72618,
    "longitude": -45.3075
  },
  {
    "codigo_ibge": 4102802,
    "nome": "Bela Vista do Paraíso",
    "uf": "PR",
    "estado": "Paraná",
    "latitude": -22.9937,
    "longitude": -51.1927
  },
  {
    "codigo_ibge": 2201556,
    "nome": "Bela Vista do Piauí",
    "uf": "PI",
    "estado": "Piauí",
    "latitude": -7.98809,
    "longitude": -41.8675
  },
  {
    "codigo_ibge": 4202131,
    "nome": "Bela Vista do Toldo",
    "uf": "SC",
    "estado": "Santa Catarina",
    "latitude": -26.2746,
    "longitude": -50.4664
  },
  {
    "codigo_ibge": 2101731,
    "nome": "Belágua",
    "uf": "MA",
    "estado": "Maranhão",
    "latitude": -3.15485,
    "longitude": -43.5122
  },
  {
    "codigo_ibge": 1501402,
    "nome": "Belém",
    "uf": "PA",
    "estado": "Pará",
    "latitude": -1.4554,
    "longitude": -48.4898
  },
  {
    "codigo_ibge": 2501906,
    "nome": "Belém",
    "uf": "PB",
    "estado": "Paraíba",
    "latitude": -6.74261,
    "longitude": -35.5166
  },
  {
    "codigo_ibge": 2700805,
    "nome": "Belém",
    "uf": "AL",
    "estado": "Alagoas",
    "latitude": -9.57047,
    "longitude": -36.4904
  },
  {
    "codigo_ibge": 2601508,
    "nome": "Belém de Maria",
    "uf": "PE",
    "estado": "Pernambuco",
    "latitude": -8.62504,
    "longitude": -35.8335
  },
  {
    "codigo_ibge": 2502003,
    "nome": "Belém do Brejo do Cruz",
    "uf": "PB",
    "estado": "Paraíba",
    "latitude": -6.18515,
    "longitude": -37.5348
  },
  {
    "codigo_ibge": 2201572,
    "nome": "Belém do Piauí",
    "uf": "PI",
    "estado": "Piauí",
    "latitude": -7.36652,
    "longitude": -40.9688
  },
  {
    "codigo_ibge": 2601607,
    "nome": "Belém do São Francisco",
    "uf": "PE",
    "estado": "Pernambuco",
    "latitude": -8.75046,
    "longitude": -38.9623
  },
  {
    "codigo_ibge": 3300456,
    "nome": "Belford Roxo",
    "uf": "RJ",
    "estado": "Rio de Janeiro",
    "latitude": -22.764,
    "longitude": -43.3992
  },
  {
    "codigo_ibge": 3106101,
    "nome": "Belmiro Braga",
    "uf": "MG",
    "estado": "Minas Gerais",
    "latitude": -21.944,
    "longitude": -43.4084
  },
  {
    "codigo_ibge": 4202156,
    "nome": "Belmonte",
    "uf": "SC",
    "estado": "Santa Catarina",
    "latitude": -26.843,
    "longitude": -53.5758
  },
  {
    "codigo_ibge": 2903409,
    "nome": "Belmonte",
    "uf": "BA",
    "estado": "Bahia",
    "latitude": -15.8608,
    "longitude": -38.8758
  },
  {
    "codigo_ibge": 2903508,
    "nome": "Belo Campo",
    "uf": "BA",
    "estado": "Bahia",
    "latitude": -15.0334,
    "longitude": -41.2652
  },
  {
    "codigo_ibge": 3106200,
    "nome": "Belo Horizonte",
    "uf": "MG",
    "estado": "Minas Gerais",
    "latitude": -19.9102,
    "longitude": -43.9266
  },
  {
    "codigo_ibge": 2601706,
    "nome": "Belo Jardim",
    "uf": "PE",
    "estado": "Pernambuco",
    "latitude": -8.3313,
    "longitude": -36.4258
  },
  {
    "codigo_ibge": 2700904,
    "nome": "Belo Monte",
    "uf": "AL",
    "estado": "Alagoas",
    "latitude": -9.82272,
    "longitude": -37.277
  },
  {
    "codigo_ibge": 3106309,
    "nome": "Belo Oriente",
    "uf": "MG",
    "estado": "Minas Gerais",
    "latitude": -19.2199,
    "longitude": -42.4828
  },
  {
    "codigo_ibge": 3106408,
    "nome": "Belo Vale",
    "uf": "MG",
    "estado": "Minas Gerais",
    "latitude": -20.4077,
    "longitude": -44.0275
  },
  {
    "codigo_ibge": 1501451,
    "nome": "Belterra",
    "uf": "PA",
    "estado": "Pará",
    "latitude": -2.63609,
    "longitude": -54.9374
  },
  {
    "codigo_ibge": 2201606,
    "nome": "Beneditinos",
    "uf": "PI",
    "estado": "Piauí",
    "latitude": -5.45676,
    "longitude": -42.3638
  },
  {
    "codigo_ibge": 2101806,
    "nome": "Benedito Leite",
    "uf": "MA",
    "estado": "Maranhão",
    "latitude": -7.21037,
    "longitude": -44.5577
  },
  {
    "codigo_ibge": 4202206,
    "nome": "Benedito Novo",
    "uf": "SC",
    "estado": "Santa Catarina",
    "latitude": -26.781,
    "longitude": -49.3593
  },
  {
    "codigo_ibge": 1501501,
    "nome": "Benevides",
    "uf": "PA",
    "estado": "Pará",
    "latitude": -1.36183,
    "longitude": -48.2434
  },
  {
    "codigo_ibge": 1300607,
    "nome": "Benjamin Constant",
    "uf": "AM",
    "estado": "Amazonas",
    "latitude": -4.37768,
    "longitude": -70.0342
  },
  {
    "codigo_ibge": 4302055,
    "nome": "Benjamin Constant do Sul",
    "uf": "RS",
    "estado": "Rio Grande do Sul",
    "latitude": -27.5086,
    "longitude": -52.5995
  },
  {
    "codigo_ibge": 3506201,
    "nome": "Bento de Abreu",
    "uf": "SP",
    "estado": "São Paulo",
    "latitude": -21.2686,
    "longitude": -50.814
  },
  {
    "codigo_ibge": 2401602,
    "nome": "Bento Fernandes",
    "uf": "RN",
    "estado": "Rio Grande do Norte",
    "latitude": -5.69906,
    "longitude": -35.813
  },
  {
    "codigo_ibge": 4302105,
    "nome": "Bento Gonçalves",
    "uf": "RS",
    "estado": "Rio Grande do Sul",
    "latitude": -29.1662,
    "longitude": -51.5165
  },
  {
    "codigo_ibge": 2101905,
    "nome": "Bequimão",
    "uf": "MA",
    "estado": "Maranhão",
    "latitude": -2.44162,
    "longitude": -44.7842
  },
  {
    "codigo_ibge": 3106507,
    "nome": "Berilo",
    "uf": "MG",
    "estado": "Minas Gerais",
    "latitude": -16.9567,
    "longitude": -42.4606
  },
  {
    "codigo_ibge": 3106655,
    "nome": "Berizal",
    "uf": "MG",
    "estado": "Minas Gerais",
    "latitude": -15.61,
    "longitude": -41.7432
  },
  {
    "codigo_ibge": 2502052,
    "nome": "Bernardino Batista",
    "uf": "PB",
    "estado": "Paraíba",
    "latitude": -6.44572,
    "longitude": -38.5521
  },
  {
    "codigo_ibge": 3506300,
    "nome": "Bernardino de Campos",
    "uf": "SP",
    "estado": "São Paulo",
    "latitude": -23.0164,
    "longitude": -49.4679
  },
  {
    "codigo_ibge": 2101939,
    "nome": "Bernardo do Mearim",
    "uf": "MA",
    "estado": "Maranhão",
    "latitude": -4.62666,
    "longitude": -44.7608
  },
  {
    "codigo_ibge": 1703206,
    "nome": "Bernardo Sayão",
    "uf": "TO",
    "estado": "Tocantins",
    "latitude": -7.87481,
    "longitude": -48.8893
  },
  {
    "codigo_ibge": 3506359,
    "nome": "Bertioga",
    "uf": "SP",
    "estado": "São Paulo",
    "latitude": -23.8486,
    "longitude": -46.1396
  },
  {
    "codigo_ibge": 2201705,
    "nome": "Bertolínia",
    "uf": "PI",
    "estado": "Piauí",
    "latitude": -7.63338,
    "longitude": -43.9498
  },
  {
    "codigo_ibge": 3106606,
    "nome": "Bertópolis",
    "uf": "MG",
    "estado": "Minas Gerais",
    "latitude": -17.059,
    "longitude": -40.58
  },
  {
    "codigo_ibge": 1300631,
    "nome": "Beruri",
    "uf": "AM",
    "estado": "Amazonas",
    "latitude": -3.89874,
    "longitude": -61.3616
  },
  {
    "codigo_ibge": 2601805,
    "nome": "Betânia",
    "uf": "PE",
    "estado": "Pernambuco",
    "latitude": -8.26787,
    "longitude": -38.0345
  },
  {
    "codigo_ibge": 2201739,
    "nome": "Betânia do Piauí",
    "uf": "PI",
    "estado": "Piauí",
    "latitude": -8.14376,
    "longitude": -40.7989
  },
  {
    "codigo_ibge": 3106705,
    "nome": "Betim",
    "uf": "MG",
    "estado": "Minas Gerais",
    "latitude": -19.9668,
    "longitude": -44.2008
  },
  {
    "codigo_ibge": 2601904,
    "nome": "Bezerros",
    "uf": "PE",
    "estado": "Pernambuco",
    "latitude": -8.2328,
    "longitude": -35.796
  },
  {
    "codigo_ibge": 3106804,
    "nome": "Bias Fortes",
    "uf": "MG",
    "estado": "Minas Gerais",
    "latitude": -21.602,
    "longitude": -43.7574
  },
  {
    "codigo_ibge": 3106903,
    "nome": "Bicas",
    "uf": "MG",
    "estado": "Minas Gerais",
    "latitude": -21.7232,
    "longitude": -43.056
  },
  {
    "codigo_ibge": 4202305,
    "nome": "Biguaçu",
    "uf": "SC",
    "estado": "Santa Catarina",
    "latitude": -27.496,
    "longitude": -48.6598
  },
  {
    "codigo_ibge": 3506409,
    "nome": "Bilac",
    "uf": "SP",
    "estado": "São Paulo",
    "latitude": -21.404,
    "longitude": -50.4746
  },
  {
    "codigo_ibge": 3107000,
    "nome": "Biquinhas",
    "uf": "MG",
    "estado": "Minas Gerais",
    "latitude": -18.7754,
    "longitude": -45.4974
  },
  {
    "codigo_ibge": 3506508,
    "nome": "Birigui",
    "uf": "SP",
    "estado": "São Paulo",
    "latitude": -21.291,
    "longitude": -50.3432
  },